{"geopoint":{"type":"Point","coordinates":[-122.333253,47.603122]},"name":"Wetpaint","number_of_employees":47,"suma_100":352,"suma_1000":1722,"suma_10000":4904}
{"geopoint":{"type":"Point","coordinates":[-122.394523,37.764726]},"name":"Digg","number_of_employees":60,"suma_100":60,"suma_1000":763,"suma_10000":22265}
{"geopoint":{"type":"Point","coordinates":[-121.904945,37.692934]},"name":"Zoho","number_of_employees":1600,"suma_100":2200,"suma_1000":2732,"suma_10000":4123}
{"geopoint":{"type":"Point","coordinates":[-118.393064,34.090368]},"name":"Geni","number_of_employees":18,"suma_100":18,"suma_1000":18,"suma_10000":27719}
{"geopoint":{"type":"Point","coordinates":[-121.904945,37.692934]},"name":"AdventNet","number_of_employees":600,"suma_100":2200,"suma_1000":2732,"suma_10000":4123}
{"geopoint":{"type":"Point","coordinates":[-118.39417,34.076179]},"name":"Fox Interactive Media","number_of_employees":0,"suma_100":0,"suma_1000":3,"suma_10000":3558}
{"geopoint":{"type":"Point","coordinates":[-122.404052,37.789634]},"name":"Scribd","number_of_employees":50,"suma_100":207,"suma_1000":10897,"suma_10000":22272}
{"geopoint":{"type":"Point","coordinates":[-73.985506,40.757929]},"name":"MeetMoi","number_of_employees":15,"suma_100":127,"suma_1000":102688,"suma_10000":172940}
{"geopoint":{"type":"Point","coordinates":[-74.0094471,40.7464969]},"name":"Joost","number_of_employees":0,"suma_100":11,"suma_1000":887,"suma_10000":173180}
{"geopoint":{"type":"Point","coordinates":[-122.4169244,37.7768052]},"name":"Twitter","number_of_employees":1300,"suma_100":1328,"suma_1000":3102,"suma_10000":22265}
{"geopoint":{"type":"Point","coordinates":[-122.055197,37.387845]},"name":"Plaxo","number_of_employees":50,"suma_100":50,"suma_1000":320,"suma_10000":394239}
{"geopoint":{"type":"Point","coordinates":[-122.151801,37.41605]},"name":"Facebook","number_of_employees":5299,"suma_100":5299,"suma_1000":5336,"suma_10000":72947}
{"geopoint":{"type":"Point","coordinates":[-121.930035,37.295005]},"name":"eBay","number_of_employees":15000,"suma_100":15000,"suma_1000":315470,"suma_10000":415472}
{"geopoint":{"type":"Point","coordinates":[-122.395289,37.778613]},"name":"Powerset","number_of_employees":60,"suma_100":145,"suma_1000":5085,"suma_10000":22272}
{"geopoint":{"type":"Point","coordinates":[-122.393041,37.779558]},"name":"Technorati","number_of_employees":35,"suma_100":209,"suma_1000":5159,"suma_10000":22272}
{"geopoint":{"type":"Point","coordinates":[-77.245195,38.926172]},"name":"AddThis","number_of_employees":120,"suma_100":120,"suma_1000":120,"suma_10000":275322}
{"geopoint":{"type":"Point","coordinates":[-118.1327468,34.1494713]},"name":"OpenX","number_of_employees":305,"suma_100":305,"suma_1000":505,"suma_10000":944}
{"geopoint":{"type":"Point","coordinates":[-118.487267,34.017606]},"name":"Mahalo","number_of_employees":40,"suma_100":71,"suma_1000":815,"suma_10000":3394}
{"geopoint":{"type":"Point","coordinates":[-122.409173,37.788482]},"name":"Kyte","number_of_employees":40,"suma_100":55,"suma_1000":5204,"suma_10000":22263}
{"geopoint":{"type":"Point","coordinates":[-122.173887,37.480999]},"name":"Jingle Networks","number_of_employees":35,"suma_100":35,"suma_1000":240,"suma_10000":40724}
{"geopoint":{"type":"Point","coordinates":[-111.938739,33.429859]},"name":"LifeLock","number_of_employees":644,"suma_100":874,"suma_1000":984,"suma_10000":2892}
{"geopoint":{"type":"Point","coordinates":[-73.995722,40.72604]},"name":"Meetup","number_of_employees":75,"suma_100":195,"suma_1000":9734,"suma_10000":172672}
{"geopoint":{"type":"Point","coordinates":[-121.907768,37.697805]},"name":"Jangl SMS","number_of_employees":22,"suma_100":22,"suma_1000":2732,"suma_10000":4920}
{"geopoint":{"type":"Point","coordinates":[-122.067692,37.390056]},"name":"SmugMug","number_of_employees":62,"suma_100":125,"suma_1000":342,"suma_10000":330769}
{"geopoint":{"type":"Point","coordinates":[-122.0899512,37.4233896]},"name":"Jajah","number_of_employees":110,"suma_100":113,"suma_1000":37434,"suma_10000":107440}
{"geopoint":{"type":"Point","coordinates":[-121.95377,37.408802]},"name":"Cisco","number_of_employees":63000,"suma_100":63000,"suma_1000":63500,"suma_10000":262906}
{"geopoint":{"type":"Point","coordinates":[-122.426804,37.627971]},"name":"YouTube","number_of_employees":0,"suma_100":0,"suma_1000":270,"suma_10000":1535}
{"geopoint":{"type":"Point","coordinates":[-118.254558,34.051409]},"name":"Stickam","number_of_employees":35,"suma_100":35,"suma_1000":1071,"suma_10000":1942}
{"geopoint":{"type":"Point","coordinates":[-0.131916,51.518132]},"name":"Skype","number_of_employees":0,"suma_100":0,"suma_1000":26121,"suma_10000":28949}
{"geopoint":{"type":"Point","coordinates":[-73.995625,40.726155]},"name":"Livestream","number_of_employees":120,"suma_100":195,"suma_1000":9734,"suma_10000":172672}
{"geopoint":{"type":"Point","coordinates":[-74.3372,40.801358]},"name":"AdaptiveBlue","number_of_employees":15,"suma_100":15,"suma_1000":15,"suma_10000":33}
{"geopoint":{"type":"Point","coordinates":[-73.99873,40.722655]},"name":"Pando Networks","number_of_employees":23,"suma_100":63,"suma_1000":1746,"suma_10000":172673}
{"geopoint":{"type":"Point","coordinates":[-122.07948,37.392936]},"name":"Ustream","number_of_employees":250,"suma_100":496,"suma_1000":2724,"suma_10000":297918}
{"geopoint":{"type":"Point","coordinates":[-121.932202,37.465645]},"name":"GrandCentral","number_of_employees":3,"suma_100":3,"suma_1000":233,"suma_10000":238976}
{"geopoint":{"type":"Point","coordinates":[-73.563878,41.049051]},"name":"Ikan","number_of_employees":5,"suma_100":5,"suma_1000":5,"suma_10000":67}
{"geopoint":{"type":"Point","coordinates":[-122.397224,37.762541]},"name":"Pownce","number_of_employees":6,"suma_100":6,"suma_1000":1358,"suma_10000":22265}
{"geopoint":{"type":"Point","coordinates":[-119.306607,37.269175]},"name":"CriticalMetrics","number_of_employees":4,"suma_100":107,"suma_1000":107,"suma_10000":107}
{"geopoint":{"type":"Point","coordinates":[-122.025485,37.418531]},"name":"Yahoo!","number_of_employees":13600,"suma_100":13636,"suma_1000":14735,"suma_10000":382669}
{"geopoint":{"type":"Point","coordinates":[-122.217964,37.488336]},"name":"Spock","number_of_employees":30,"suma_100":70,"suma_1000":174,"suma_10000":22676}
{"geopoint":{"type":"Point","coordinates":[-119.306607,37.269175]},"name":"SodaHead","number_of_employees":25,"suma_100":107,"suma_1000":107,"suma_10000":107}
{"geopoint":{"type":"Point","coordinates":[-122.393913,37.780716]},"name":"CastTV","number_of_employees":0,"suma_100":50,"suma_1000":9075,"suma_10000":22272}
{"geopoint":{"type":"Point","coordinates":[-121.96761,37.384949]},"name":"Intel","number_of_employees":86300,"suma_100":86300,"suma_1000":92270,"suma_10000":344606}
{"geopoint":{"type":"Point","coordinates":[-123.138565,49.263588]},"name":"EQO","number_of_employees":0,"suma_100":31,"suma_1000":36,"suma_10000":1278}
{"geopoint":{"type":"Point","coordinates":[-118.756618,34.155211]},"name":"ClipBlast!","number_of_employees":15,"suma_100":15,"suma_1000":15,"suma_10000":53}
{"geopoint":{"type":"Point","coordinates":[-122.4038047,37.7870842]},"name":"Mashery","number_of_employees":0,"suma_100":700,"suma_1000":10433,"suma_10000":22272}
{"geopoint":{"type":"Point","coordinates":[24.93105,60.16377]},"name":"Jaiku","number_of_employees":8,"suma_100":8,"suma_1000":88,"suma_10000":125215}
{"geopoint":{"type":"Point","coordinates":[-121.940749,37.380101]},"name":"Spotplex","number_of_employees":3,"suma_100":3,"suma_1000":3,"suma_10000":670761}
{"geopoint":{"type":"Point","coordinates":[-122.402195,37.786183]},"name":"Yelp","number_of_employees":800,"suma_100":844,"suma_1000":10332,"suma_10000":22272}
{"geopoint":{"type":"Point","coordinates":[4.908556,52.375595]},"name":"Fleck","number_of_employees":3,"suma_100":3,"suma_1000":25,"suma_10000":12775}
{"geopoint":{"type":"Point","coordinates":[4.8948623,52.3745228]},"name":"Wakoopa","number_of_employees":8,"suma_100":8,"suma_1000":72,"suma_10000":12775}
{"geopoint":{"type":"Point","coordinates":[-1.3610845,50.9444598]},"name":"Zamzar","number_of_employees":2,"suma_100":2,"suma_1000":2,"suma_10000":2}
{"geopoint":{"type":"Point","coordinates":[-122.221717,37.476479]},"name":"Coghead","number_of_employees":21,"suma_100":21,"suma_1000":121,"suma_10000":19614}
{"geopoint":{"type":"Point","coordinates":[-121.977853,37.374998]},"name":"SideStep","number_of_employees":75,"suma_100":75,"suma_1000":368,"suma_10000":360953}
{"geopoint":{"type":"Point","coordinates":[-122.084143,37.421972]},"name":"Google","number_of_employees":28000,"suma_100":28000,"suma_1000":35281,"suma_10000":126098}
{"geopoint":{"type":"Point","coordinates":[-122.02421,37.36965]},"name":"coRank","number_of_employees":0,"suma_100":0,"suma_1000":4,"suma_10000":378072}
{"geopoint":{"type":"Point","coordinates":[-122.359397,47.620982]},"name":"Farecast","number_of_employees":26,"suma_100":26,"suma_1000":2158,"suma_10000":4888}
{"geopoint":{"type":"Point","coordinates":[-118.495155,34.0126379]},"name":"ConVerdge","number_of_employees":25,"suma_100":25,"suma_1000":1000,"suma_10000":3174}
{"geopoint":{"type":"Point","coordinates":[-122.414689,37.758113]},"name":"Pageflakes","number_of_employees":20,"suma_100":20,"suma_1000":216,"suma_10000":22265}
{"geopoint":{"type":"Point","coordinates":[-122.206893,37.484619]},"name":"RockYou","number_of_employees":106,"suma_100":106,"suma_1000":756,"suma_10000":19311}
{"geopoint":{"type":"Point","coordinates":[2.34668,48.870806]},"name":"Netvibes","number_of_employees":35,"suma_100":35,"suma_1000":597,"suma_10000":110841}
{"geopoint":{"type":"Point","coordinates":[-122.395184,37.789268]},"name":"Swivel","number_of_employees":1,"suma_100":2451,"suma_1000":12665,"suma_10000":22272}
{"geopoint":{"type":"Point","coordinates":[-122.392144,37.781427]},"name":"Slide","number_of_employees":64,"suma_100":402,"suma_1000":8752,"suma_10000":22272}
{"geopoint":{"type":"Point","coordinates":[-73.9843328,40.7516611]},"name":"KickApps","number_of_employees":72,"suma_100":72,"suma_1000":104603,"suma_10000":173185}
{"geopoint":{"type":"Point","coordinates":[-122.401116,37.782103]},"name":"Bebo","number_of_employees":0,"suma_100":10,"suma_1000":10725,"suma_10000":22272}
{"geopoint":{"type":"Point","coordinates":[-122.025485,37.418531]},"name":"Flickr","number_of_employees":36,"suma_100":13636,"suma_1000":14735,"suma_10000":382669}
{"geopoint":{"type":"Point","coordinates":[-122.511687,37.90077]},"name":"CrowdVine","number_of_employees":10,"suma_100":10,"suma_1000":10,"suma_10000":509}
{"geopoint":{"type":"Point","coordinates":[-122.338793,47.614653]},"name":"TripHub","number_of_employees":6,"suma_100":6,"suma_1000":565,"suma_10000":4892}
{"geopoint":{"type":"Point","coordinates":[2.381514,48.866323]},"name":"WatZatSong","number_of_employees":3,"suma_100":3,"suma_1000":85,"suma_10000":110247}
{"geopoint":{"type":"Point","coordinates":[-122.40184,37.779026]},"name":"adBrite","number_of_employees":50,"suma_100":155,"suma_1000":6181,"suma_10000":22263}
{"geopoint":{"type":"Point","coordinates":[-122.079017,37.393679]},"name":"Meebo","number_of_employees":200,"suma_100":1155,"suma_1000":2790,"suma_10000":297918}
{"geopoint":{"type":"Point","coordinates":[-122.39071,37.779507]},"name":"Eventbrite","number_of_employees":200,"suma_100":1665,"suma_1000":4842,"suma_10000":22275}
{"geopoint":{"type":"Point","coordinates":[6.1329985,49.6026778]},"name":"Jamendo","number_of_employees":20,"suma_100":20,"suma_1000":5020,"suma_10000":5020}
{"geopoint":{"type":"Point","coordinates":[-122.159928,37.437328]},"name":"Terabitz","number_of_employees":12,"suma_100":37,"suma_1000":1504,"suma_10000":76832}
{"geopoint":{"type":"Point","coordinates":[-122.323408,47.615313]},"name":"iLike","number_of_employees":28,"suma_100":39,"suma_1000":129,"suma_10000":5277}
{"geopoint":{"type":"Point","coordinates":[-122.358484,47.618599]},"name":"Newsvine","number_of_employees":8,"suma_100":8,"suma_1000":2158,"suma_10000":4888}
{"geopoint":{"type":"Point","coordinates":[-117.163841,32.718834]},"name":"Cuts","number_of_employees":6,"suma_100":12,"suma_1000":180,"suma_10000":284}
{"geopoint":{"type":"Point","coordinates":[-118.3835957,34.0906602]},"name":"Ticketmaster","number_of_employees":0,"suma_100":0,"suma_1000":114,"suma_10000":27183}
{"geopoint":{"type":"Point","coordinates":[-122.143701,37.425801]},"name":"Box","number_of_employees":950,"suma_100":958,"suma_1000":1092,"suma_10000":74367}
{"geopoint":{"type":"Point","coordinates":[-122.325248,37.561877]},"name":"Conduit","number_of_employees":215,"suma_100":285,"suma_1000":379,"suma_10000":11025}
{"geopoint":{"type":"Point","coordinates":[-71.076869,42.350571]},"name":"Carbonite","number_of_employees":68,"suma_100":98,"suma_1000":916,"suma_10000":107184}
{"geopoint":{"type":"Point","coordinates":[-122.419204,37.775196]},"name":"GigaOM","number_of_employees":75,"suma_100":745,"suma_1000":3078,"suma_10000":22265}
{"geopoint":{"type":"Point","coordinates":[-122.333253,47.603122]},"name":"Redfin","number_of_employees":100,"suma_100":352,"suma_1000":1722,"suma_10000":4904}
{"geopoint":{"type":"Point","coordinates":[34.7595,32.0554]},"name":"Go2Web20","number_of_employees":0,"suma_100":170,"suma_1000":170,"suma_10000":279}
{"geopoint":{"type":"Point","coordinates":[-84.351532,39.06685]},"name":"TechnologyGuide","number_of_employees":10,"suma_100":10,"suma_1000":10,"suma_10000":24}
{"geopoint":{"type":"Point","coordinates":[-122.073635,37.423258]},"name":"LinkedIn","number_of_employees":4800,"suma_100":4800,"suma_1000":33903,"suma_10000":131249}
{"geopoint":{"type":"Point","coordinates":[-122.419204,37.775196]},"name":"Seesmic","number_of_employees":13,"suma_100":745,"suma_1000":3078,"suma_10000":22265}
{"geopoint":{"type":"Point","coordinates":[-122.3985871,37.7618242]},"name":"Techmeme","number_of_employees":11,"suma_100":26,"suma_1000":1208,"suma_10000":22265}
{"geopoint":{"type":"Point","coordinates":[-117.206292,32.872081]},"name":"Eventful","number_of_employees":60,"suma_100":60,"suma_1000":140,"suma_10000":1215}
{"geopoint":{"type":"Point","coordinates":[-122.301534,37.553121]},"name":"Zvents","number_of_employees":55,"suma_100":355,"suma_1000":1507,"suma_10000":16254}
{"geopoint":{"type":"Point","coordinates":[-78.48158,38.030823]},"name":"Hotelicopter","number_of_employees":15,"suma_100":15,"suma_1000":90,"suma_10000":90}
{"geopoint":{"type":"Point","coordinates":[-122.178557,37.479952]},"name":"oDesk","number_of_employees":120,"suma_100":145,"suma_1000":240,"suma_10000":40551}
{"geopoint":{"type":"Point","coordinates":[-122.420903,37.796164]},"name":"Cofoundr","number_of_employees":0,"suma_100":112,"suma_1000":176,"suma_10000":22480}
{"geopoint":{"type":"Point","coordinates":[-122.0780632,37.4219165]},"name":"Simply Hired","number_of_employees":100,"suma_100":100,"suma_1000":35104,"suma_10000":126118}
{"geopoint":{"type":"Point","coordinates":[-122.116026,37.451958]},"name":"ooma","number_of_employees":47,"suma_100":47,"suma_1000":1084,"suma_10000":89730}
{"geopoint":{"type":"Point","coordinates":[-118.601532,34.184598]},"name":"Gumiyo","number_of_employees":0,"suma_100":0,"suma_1000":10,"suma_10000":375}
{"geopoint":{"type":"Point","coordinates":[-122.392861,37.76785]},"name":"Ujogo","number_of_employees":6,"suma_100":149,"suma_1000":1406,"suma_10000":22274}
{"geopoint":{"type":"Point","coordinates":[-118.350486,34.070436]},"name":"stylediary","number_of_employees":0,"suma_100":24,"suma_1000":46,"suma_10000":28202}
{"geopoint":{"type":"Point","coordinates":[-121.96533,37.255118]},"name":"ictv","number_of_employees":80,"suma_100":80,"suma_1000":2144,"suma_10000":319268}
{"geopoint":{"type":"Point","coordinates":[-122.392142,37.782263]},"name":"GoingOn","number_of_employees":40,"suma_100":104,"suma_1000":9728,"suma_10000":22272}
{"geopoint":{"type":"Point","coordinates":[-77.072003,38.897428]},"name":"MyPublicInfo","number_of_employees":7,"suma_100":7,"suma_1000":14,"suma_10000":9027}
{"geopoint":{"type":"Point","coordinates":[-122.406676,37.766909]},"name":"Flixster","number_of_employees":75,"suma_100":595,"suma_1000":1365,"suma_10000":22265}
{"geopoint":{"type":"Point","coordinates":[-122.547445,37.905544]},"name":"Checkster","number_of_employees":0,"suma_100":0,"suma_1000":3,"suma_10000":509}
{"geopoint":{"type":"Point","coordinates":[-122.450942,47.420728]},"name":"Recipezaar","number_of_employees":5,"suma_100":5,"suma_1000":5,"suma_10000":5}
{"geopoint":{"type":"Point","coordinates":[-122.072981,37.40047]},"name":"Parakey","number_of_employees":2,"suma_100":66,"suma_1000":1165,"suma_10000":298066}
{"geopoint":{"type":"Point","coordinates":[-122.1615,37.442949]},"name":"Socialtext","number_of_employees":50,"suma_100":290,"suma_1000":2171,"suma_10000":77049}
{"geopoint":{"type":"Point","coordinates":[-80.004195,40.437985]},"name":"Spreadshirt","number_of_employees":230,"suma_100":230,"suma_1000":320,"suma_10000":403}
{"geopoint":{"type":"Point","coordinates":[-97.717667,30.407545]},"name":"Bazaarvoice","number_of_employees":600,"suma_100":600,"suma_1000":600,"suma_10000":82734}
{"geopoint":{"type":"Point","coordinates":[-121.8731805,37.6637279]},"name":"spigit","number_of_employees":120,"suma_100":120,"suma_1000":120,"suma_10000":4121}
{"geopoint":{"type":"Point","coordinates":[-122.393041,37.779558]},"name":"PowerReviews","number_of_employees":120,"suma_100":209,"suma_1000":5159,"suma_10000":22272}
{"geopoint":{"type":"Point","coordinates":[-121.979453,37.321798]},"name":"LiveWorld","number_of_employees":75,"suma_100":75,"suma_1000":75,"suma_10000":645903}
{"geopoint":{"type":"Point","coordinates":[-122.400558,37.788668]},"name":"hi5","number_of_employees":100,"suma_100":806,"suma_1000":11759,"suma_10000":22272}
{"geopoint":{"type":"Point","coordinates":[-122.4186,37.7753]},"name":"Tagged","number_of_employees":162,"suma_100":745,"suma_1000":3078,"suma_10000":22265}
{"geopoint":{"type":"Point","coordinates":[11.978686,44.418166]},"name":"Clipperz","number_of_employees":2,"suma_100":2,"suma_1000":2,"suma_10000":2}
{"geopoint":{"type":"Point","coordinates":[138.252924,36.204824]},"name":"Nintendo","number_of_employees":5080,"suma_100":5080,"suma_1000":5080,"suma_10000":5080}
{"geopoint":{"type":"Point","coordinates":[-71.051931,42.340889]},"name":"ScanScout","number_of_employees":40,"suma_100":40,"suma_1000":65,"suma_10000":107014}
{"geopoint":{"type":"Point","coordinates":[-87.6557234,41.8892178]},"name":"37signals","number_of_employees":20,"suma_100":20,"suma_1000":34,"suma_10000":176101}
{"geopoint":{"type":"Point","coordinates":[-122.18676,37.451026]},"name":"Jaxtr","number_of_employees":30,"suma_100":30,"suma_1000":216,"suma_10000":69076}
{"geopoint":{"type":"Point","coordinates":[-97.5736,35.612679]},"name":"ONEsite","number_of_employees":50,"suma_100":50,"suma_1000":50,"suma_10000":55}
{"geopoint":{"type":"Point","coordinates":[-122.327323,37.536172]},"name":"NetSuite","number_of_employees":1600,"suma_100":1710,"suma_1000":1856,"suma_10000":11944}
{"geopoint":{"type":"Point","coordinates":[-119.641821,34.42071]},"name":"introNetworks","number_of_employees":11,"suma_100":11,"suma_1000":11,"suma_10000":569}
{"geopoint":{"type":"Point","coordinates":[-79.462703,40.30305]},"name":"Wallhogs","number_of_employees":52,"suma_100":52,"suma_1000":52,"suma_10000":52}
{"geopoint":{"type":"Point","coordinates":[-122.321836,37.55909]},"name":"Respectance","number_of_employees":15,"suma_100":27,"suma_1000":379,"suma_10000":11881}
{"geopoint":{"type":"Point","coordinates":[-122.399972,37.787092]},"name":"Curse","number_of_employees":58,"suma_100":252,"suma_1000":12693,"suma_10000":22272}
{"geopoint":{"type":"Point","coordinates":[4.8919457,52.3640933]},"name":"eBuddy","number_of_employees":90,"suma_100":92,"suma_1000":192,"suma_10000":12775}
{"geopoint":{"type":"Point","coordinates":[-122.419204,37.775196]},"name":"Grockit","number_of_employees":25,"suma_100":745,"suma_1000":3078,"suma_10000":22265}
{"geopoint":{"type":"Point","coordinates":[-122.402349,37.792394]},"name":"Kiptronic","number_of_employees":20,"suma_100":41,"suma_1000":11329,"suma_10000":22272}
{"geopoint":{"type":"Point","coordinates":[-95.712891,37.09024]},"name":"CollegeWikis","number_of_employees":7,"suma_100":191166,"suma_1000":191166,"suma_10000":191166}
{"geopoint":{"type":"Point","coordinates":[-111.944967,33.429864]},"name":"JumpBox","number_of_employees":5,"suma_100":5,"suma_1000":984,"suma_10000":2892}
{"geopoint":{"type":"Point","coordinates":[-122.417928,37.779392]},"name":"FeVote","number_of_employees":1,"suma_100":1,"suma_1000":3140,"suma_10000":22265}
{"geopoint":{"type":"Point","coordinates":[-122.2262606,37.4858654]},"name":"Vuze","number_of_employees":20,"suma_100":20,"suma_1000":452,"suma_10000":16573}
{"geopoint":{"type":"Point","coordinates":[-121.992132,37.384651]},"name":"LongJump","number_of_employees":30,"suma_100":87,"suma_1000":17161,"suma_10000":380586}
{"geopoint":{"type":"Point","coordinates":[-122.347533,47.620716]},"name":"Wishpot","number_of_employees":10,"suma_100":226,"suma_1000":565,"suma_10000":4890}
{"geopoint":{"type":"Point","coordinates":[-73.985506,40.757929]},"name":"Clipmarks","number_of_employees":10,"suma_100":127,"suma_1000":102688,"suma_10000":172940}
{"geopoint":{"type":"Point","coordinates":[-122.3276962,47.5999337]},"name":"PayScale","number_of_employees":130,"suma_100":135,"suma_1000":1502,"suma_10000":5142}
{"geopoint":{"type":"Point","coordinates":[-95.712891,37.09024]},"name":"Sony","number_of_employees":180500,"suma_100":191166,"suma_1000":191166,"suma_10000":191166}
{"geopoint":{"type":"Point","coordinates":[150.981801,-33.722577]},"name":"Boonex","number_of_employees":16,"suma_100":16,"suma_1000":16,"suma_10000":16}
{"geopoint":{"type":"Point","coordinates":[-121.877636,37.320052]},"name":"Adobe Systems","number_of_employees":7173,"suma_100":13196,"suma_1000":13203,"suma_10000":338381}
{"geopoint":{"type":"Point","coordinates":[-105.276843,40.010492]},"name":"IntenseDebate","number_of_employees":4,"suma_100":49,"suma_1000":235,"suma_10000":2737}
{"geopoint":{"type":"Point","coordinates":[-76.77514,39.205649]},"name":"Lotame","number_of_employees":75,"suma_100":75,"suma_1000":75,"suma_10000":283}
{"geopoint":{"type":"Point","coordinates":[18.1582777,59.3167843]},"name":"Rebtel","number_of_employees":75,"suma_100":75,"suma_1000":75,"suma_10000":503}
{"geopoint":{"type":"Point","coordinates":[-122.356756,47.61968]},"name":"BuddyTV","number_of_employees":20,"suma_100":20,"suma_1000":2158,"suma_10000":4888}
{"geopoint":{"type":"Point","coordinates":[-46.679287,-23.558584]},"name":"boo-box","number_of_employees":50,"suma_100":50,"suma_1000":50,"suma_10000":5614}
{"geopoint":{"type":"Point","coordinates":[-95.712891,37.09024]},"name":"SplashCast","number_of_employees":8,"suma_100":191166,"suma_1000":191166,"suma_10000":191166}
{"geopoint":{"type":"Point","coordinates":[-122.073003,37.400465]},"name":"Buxfer","number_of_employees":4,"suma_100":66,"suma_1000":1165,"suma_10000":298066}
{"geopoint":{"type":"Point","coordinates":[-71.086596,42.362993]},"name":"Brightcove","number_of_employees":220,"suma_100":220,"suma_1000":4052,"suma_10000":107246}
{"geopoint":{"type":"Point","coordinates":[-121.935688,37.288974]},"name":"Hightail","number_of_employees":200,"suma_100":200,"suma_1000":315520,"suma_10000":414724}
{"geopoint":{"type":"Point","coordinates":[4.5464658,51.9122575]},"name":"Nimbuzz","number_of_employees":140,"suma_100":140,"suma_1000":140,"suma_10000":451}
{"geopoint":{"type":"Point","coordinates":[34.7595,32.0554]},"name":"MeeMix","number_of_employees":9,"suma_100":170,"suma_1000":170,"suma_10000":279}
{"geopoint":{"type":"Point","coordinates":[-121.927696,37.294465]},"name":"PayPal","number_of_employees":300000,"suma_100":300000,"suma_1000":315470,"suma_10000":415397}
{"geopoint":{"type":"Point","coordinates":[-118.324987,34.156802]},"name":"The Walt Disney Company","number_of_employees":25000,"suma_100":25000,"suma_1000":25013,"suma_10000":26094}
{"geopoint":{"type":"Point","coordinates":[-122.0727749,37.3927975]},"name":"IMVU","number_of_employees":150,"suma_100":150,"suma_1000":2302,"suma_10000":299039}
{"geopoint":{"type":"Point","coordinates":[-73.9919311,40.7311317]},"name":"AOL","number_of_employees":8000,"suma_100":8000,"suma_1000":9377,"suma_10000":173172}
{"geopoint":{"type":"Point","coordinates":[-118.495566,34.01676]},"name":"Userplane","number_of_employees":10,"suma_100":10,"suma_1000":891,"suma_10000":3154}
{"geopoint":{"type":"Point","coordinates":[-86.463026,37.018244]},"name":"Outdoorzy","number_of_employees":2,"suma_100":2,"suma_1000":2,"suma_10000":2}
{"geopoint":{"type":"Point","coordinates":[-74.761403,40.270666]},"name":"Scrybe","number_of_employees":20,"suma_100":20,"suma_1000":20,"suma_10000":26}
{"geopoint":{"type":"Point","coordinates":[34.851612,31.046051]},"name":"Aniboom","number_of_employees":25,"suma_100":47,"suma_1000":47,"suma_10000":47}
{"geopoint":{"type":"Point","coordinates":[-79.549577,43.76969]},"name":"Webkinz","number_of_employees":8657,"suma_100":8657,"suma_1000":8657,"suma_10000":8732}
{"geopoint":{"type":"Point","coordinates":[-122.1879633,38.0729365]},"name":"Echo","number_of_employees":50,"suma_100":50,"suma_1000":50,"suma_10000":50}
{"geopoint":{"type":"Point","coordinates":[-117.928351,33.610083]},"name":"Omnifuse","number_of_employees":4,"suma_100":4,"suma_1000":11,"suma_10000":700}
{"geopoint":{"type":"Point","coordinates":[-81.788104,26.246414]},"name":"INgage Networks","number_of_employees":100,"suma_100":100,"suma_1000":100,"suma_10000":100}
{"geopoint":{"type":"Point","coordinates":[-73.990004,40.740251]},"name":"SelectMinds","number_of_employees":55,"suma_100":77,"suma_1000":8279,"suma_10000":173180}
{"geopoint":{"type":"Point","coordinates":[-117.167831,32.720656]},"name":"MindTouch","number_of_employees":0,"suma_100":6,"suma_1000":50,"suma_10000":286}
{"geopoint":{"type":"Point","coordinates":[-105.276843,40.010492]},"name":"Techstars","number_of_employees":30,"suma_100":49,"suma_1000":235,"suma_10000":2737}
{"geopoint":{"type":"Point","coordinates":[-86.130347,39.998641]},"name":"ChaCha","number_of_employees":70,"suma_100":70,"suma_1000":70,"suma_10000":73}
{"geopoint":{"type":"Point","coordinates":[-118.327071,34.101617]},"name":"Social Platform","number_of_employees":12,"suma_100":24,"suma_1000":196,"suma_10000":28664}
{"geopoint":{"type":"Point","coordinates":[-122.399646,37.794649]},"name":"webcrossing","number_of_employees":10,"suma_100":260,"suma_1000":10690,"suma_10000":22272}
{"geopoint":{"type":"Point","coordinates":[-122.228843,37.491356]},"name":"Flock","number_of_employees":40,"suma_100":40,"suma_1000":357,"suma_10000":16841}
{"geopoint":{"type":"Point","coordinates":[-96.76492,17.08881]},"name":"Sportingo","number_of_employees":0,"suma_100":0,"suma_1000":0,"suma_10000":0}
{"geopoint":{"type":"Point","coordinates":[-1.197534,51.785428]},"name":"Curverider","number_of_employees":5,"suma_100":5,"suma_1000":5,"suma_10000":30}
{"geopoint":{"type":"Point","coordinates":[-122.4084994,37.7909427]},"name":"Dropbox","number_of_employees":350,"suma_100":350,"suma_1000":6500,"suma_10000":22263}
{"geopoint":{"type":"Point","coordinates":[-71.08907,42.364059]},"name":"Akamai Technologies","number_of_employees":1000,"suma_100":1000,"suma_1000":104051,"suma_10000":108426}
{"geopoint":{"type":"Point","coordinates":[-3.74922,40.463667]},"name":"Negonation","number_of_employees":3,"suma_100":3,"suma_1000":3,"suma_10000":546}
{"geopoint":{"type":"Point","coordinates":[-122.39071,37.779507]},"name":"TokBox","number_of_employees":55,"suma_100":1665,"suma_1000":4842,"suma_10000":22275}
{"geopoint":{"type":"Point","coordinates":[-122.135521,47.682233]},"name":"Sampa","number_of_employees":4,"suma_100":4,"suma_1000":24,"suma_10000":91078}
{"geopoint":{"type":"Point","coordinates":[-122.400729,37.795555]},"name":"Weebly","number_of_employees":70,"suma_100":221,"suma_1000":9020,"suma_10000":22272}
{"geopoint":{"type":"Point","coordinates":[-77.236968,38.805114]},"name":"RealEditor","number_of_employees":2,"suma_100":2,"suma_1000":2,"suma_10000":272992}
{"geopoint":{"type":"Point","coordinates":[139.7326754,35.6725213]},"name":"Six Apart","number_of_employees":50,"suma_100":50,"suma_1000":50,"suma_10000":60}
{"geopoint":{"type":"Point","coordinates":[-122.394668,37.790998]},"name":"BitTorrent","number_of_employees":80,"suma_100":150,"suma_1000":11792,"suma_10000":22272}
{"geopoint":{"type":"Point","coordinates":[-122.401245,37.786942]},"name":"Kongregate","number_of_employees":20,"suma_100":73,"suma_1000":11760,"suma_10000":22272}
{"geopoint":{"type":"Point","coordinates":[-122.407959,37.781557]},"name":"DanceJam","number_of_employees":0,"suma_100":16,"suma_1000":4488,"suma_10000":22265}
{"geopoint":{"type":"Point","coordinates":[-122.3954751,37.7911148]},"name":"Yola","number_of_employees":70,"suma_100":150,"suma_1000":11417,"suma_10000":22272}
{"geopoint":{"type":"Point","coordinates":[-122.3229235,37.5646055]},"name":"Inneractive","number_of_employees":0,"suma_100":5,"suma_1000":379,"suma_10000":11025}
{"geopoint":{"type":"Point","coordinates":[-105.2762236,40.0186731]},"name":"Socialthing","number_of_employees":5,"suma_100":5,"suma_1000":235,"suma_10000":2737}
{"geopoint":{"type":"Point","coordinates":[-105.276843,40.010492]},"name":"Filtrbox","number_of_employees":14,"suma_100":49,"suma_1000":235,"suma_10000":2737}
{"geopoint":{"type":"Point","coordinates":[-104.982256,39.762314]},"name":"Brightkite","number_of_employees":0,"suma_100":0,"suma_1000":102,"suma_10000":354}
{"geopoint":{"type":"Point","coordinates":[-71.05781,42.35892]},"name":"Cloudant","number_of_employees":70,"suma_100":117,"suma_1000":642,"suma_10000":107026}
{"geopoint":{"type":"Point","coordinates":[-73.971655,40.751816]},"name":"KIT digital","number_of_employees":200,"suma_100":200,"suma_1000":36489,"suma_10000":172975}
{"geopoint":{"type":"Point","coordinates":[-122.393041,37.779558]},"name":"Pixsy Image Search","number_of_employees":0,"suma_100":209,"suma_1000":5159,"suma_10000":22272}
{"geopoint":{"type":"Point","coordinates":[-122.397593,37.789488]},"name":"Zivity","number_of_employees":16,"suma_100":16,"suma_1000":12766,"suma_10000":22272}
{"geopoint":{"type":"Point","coordinates":[-121.948399,37.32052]},"name":"BlueLithium","number_of_employees":135,"suma_100":195,"suma_1000":265,"suma_10000":643950}
{"geopoint":{"type":"Point","coordinates":[-122.145783,37.427235]},"name":"Doostang","number_of_employees":10,"suma_100":10,"suma_1000":1092,"suma_10000":73049}
{"geopoint":{"type":"Point","coordinates":[-121.955463,37.394791]},"name":"Sun Microsystems","number_of_employees":33350,"suma_100":33350,"suma_1000":33350,"suma_10000":343533}
{"geopoint":{"type":"Point","coordinates":[-71.207055,42.38532]},"name":"ZoomInfo","number_of_employees":800,"suma_100":1180,"suma_1000":1180,"suma_10000":109859}
{"geopoint":{"type":"Point","coordinates":[-115.064859,36.032976]},"name":"Zappos","number_of_employees":1500,"suma_100":1500,"suma_1000":1500,"suma_10000":1720}
{"geopoint":{"type":"Point","coordinates":[-118.372953,34.076061]},"name":"MySpace","number_of_employees":800,"suma_100":806,"suma_1000":823,"suma_10000":2914}
{"geopoint":{"type":"Point","coordinates":[-122.155668,47.579208]},"name":"Zango","number_of_employees":225,"suma_100":225,"suma_1000":4705,"suma_10000":95702}
{"geopoint":{"type":"Point","coordinates":[-118.495025,34.018275]},"name":"Docstoc","number_of_employees":40,"suma_100":40,"suma_1000":891,"suma_10000":3154}
{"geopoint":{"type":"Point","coordinates":[12.541484,55.699123]},"name":"ZYB","number_of_employees":25,"suma_100":25,"suma_1000":82,"suma_10000":1624}
{"geopoint":{"type":"Point","coordinates":[-104.988123,39.755092]},"name":"NewsGator","number_of_employees":90,"suma_100":102,"suma_1000":199,"suma_10000":354}
{"geopoint":{"type":"Point","coordinates":[-122.169472,37.48413]},"name":"FilmLoop","number_of_employees":0,"suma_100":60,"suma_1000":240,"suma_10000":40724}
{"geopoint":{"type":"Point","coordinates":[101.686855,3.139003]},"name":"Friendster","number_of_employees":70,"suma_100":70,"suma_1000":70,"suma_10000":83}
{"geopoint":{"type":"Point","coordinates":[-122.39323,37.710677]},"name":"Greystripe","number_of_employees":90,"suma_100":90,"suma_1000":90,"suma_10000":22497}
{"geopoint":{"type":"Point","coordinates":[-72.188584,41.53155]},"name":"ReachLocal","number_of_employees":1700,"suma_100":1700,"suma_1000":1700,"suma_10000":1700}
{"geopoint":{"type":"Point","coordinates":[-122.406676,37.766909]},"name":"Trulia","number_of_employees":500,"suma_100":595,"suma_1000":1365,"suma_10000":22265}
{"geopoint":{"type":"Point","coordinates":[-3.435973,55.378051]},"name":"dpreview","number_of_employees":13,"suma_100":47,"suma_1000":47,"suma_10000":47}
{"geopoint":{"type":"Point","coordinates":[-122.286493,37.836957]},"name":"TubeMogul","number_of_employees":230,"suma_100":230,"suma_1000":532,"suma_10000":1039}
{"geopoint":{"type":"Point","coordinates":[-95.712891,37.09024]},"name":"SpiralFrog","number_of_employees":15,"suma_100":191166,"suma_1000":191166,"suma_10000":191166}
{"geopoint":{"type":"Point","coordinates":[-95.712891,37.09024]},"name":"TechTarget","number_of_employees":600,"suma_100":191166,"suma_1000":191166,"suma_10000":191166}
{"geopoint":{"type":"Point","coordinates":[-95.712891,37.09024]},"name":"Sportsline","number_of_employees":264,"suma_100":191166,"suma_1000":191166,"suma_10000":191166}
{"geopoint":{"type":"Point","coordinates":[-0.1418973,51.5108803]},"name":"Seedcamp","number_of_employees":4,"suma_100":4,"suma_1000":25903,"suma_10000":29095}
{"geopoint":{"type":"Point","coordinates":[-95.712891,37.09024]},"name":"Espotting","number_of_employees":250,"suma_100":191166,"suma_1000":191166,"suma_10000":191166}
{"geopoint":{"type":"Point","coordinates":[-122.405265,37.785647]},"name":"OpenTable","number_of_employees":550,"suma_100":570,"suma_1000":8520,"suma_10000":22263}
{"geopoint":{"type":"Point","coordinates":[-75.066111,3.046111]},"name":"airG","number_of_employees":180,"suma_100":180,"suma_1000":180,"suma_10000":180}
{"geopoint":{"type":"Point","coordinates":[-122.151158,47.597965]},"name":"YouBeQB","number_of_employees":8,"suma_100":8,"suma_1000":8,"suma_10000":95917}
{"geopoint":{"type":"Point","coordinates":[-94.597896,39.044694]},"name":"Adknowledge","number_of_employees":300,"suma_100":460,"suma_1000":460,"suma_10000":14525}
{"geopoint":{"type":"Point","coordinates":[-90.216499,38.618874]},"name":"RampedMedia","number_of_employees":6,"suma_100":6,"suma_1000":6,"suma_10000":10204}
{"geopoint":{"type":"Point","coordinates":[-78.815635,35.854483]},"name":"ChannelAdvisor","number_of_employees":300,"suma_100":300,"suma_1000":300,"suma_10000":877}
{"geopoint":{"type":"Point","coordinates":[-71.058768,42.350274]},"name":"MocoSpace","number_of_employees":25,"suma_100":27,"suma_1000":797,"suma_10000":107024}
{"geopoint":{"type":"Point","coordinates":[-71.104329,42.358822]},"name":"LocaModa","number_of_employees":0,"suma_100":0,"suma_1000":100008,"suma_10000":108574}
{"geopoint":{"type":"Point","coordinates":[-73.997395,40.725435]},"name":"Thumbplay","number_of_employees":70,"suma_100":80,"suma_1000":9693,"suma_10000":172672}
{"geopoint":{"type":"Point","coordinates":[-95.712891,37.09024]},"name":"Alloy","number_of_employees":0,"suma_100":191166,"suma_1000":191166,"suma_10000":191166}
{"geopoint":{"type":"Point","coordinates":[-122.300246,37.553743]},"name":"Mixercast","number_of_employees":1,"suma_100":214,"suma_1000":1507,"suma_10000":16306}
{"geopoint":{"type":"Point","coordinates":[-73.985506,40.757929]},"name":"Fotolog","number_of_employees":40,"suma_100":127,"suma_1000":102688,"suma_10000":172940}
{"geopoint":{"type":"Point","coordinates":[-74.004792,40.707921]},"name":"Tutor","number_of_employees":55,"suma_100":255,"suma_1000":8402,"suma_10000":172662}
{"geopoint":{"type":"Point","coordinates":[-122.419204,37.775196]},"name":"MicroPlace","number_of_employees":15,"suma_100":745,"suma_1000":3078,"suma_10000":22265}
{"geopoint":{"type":"Point","coordinates":[-122.3276962,47.5999337]},"name":"EyeJot","number_of_employees":5,"suma_100":135,"suma_1000":1502,"suma_10000":5142}
{"geopoint":{"type":"Point","coordinates":[-79.348037,43.799511]},"name":"Contrastream","number_of_employees":1,"suma_100":1,"suma_1000":1,"suma_10000":793}
{"geopoint":{"type":"Point","coordinates":[-121.873881,37.316466]},"name":"Videohybrid","number_of_employees":2,"suma_100":5,"suma_1000":13203,"suma_10000":332169}
{"geopoint":{"type":"Point","coordinates":[-74.001704,40.723384]},"name":"OMGPOP","number_of_employees":50,"suma_100":50,"suma_1000":1933,"suma_10000":172673}
{"geopoint":{"type":"Point","coordinates":[-73.886452,40.643438]},"name":"Daylife","number_of_employees":25,"suma_100":25,"suma_1000":25,"suma_10000":951}
{"geopoint":{"type":"Point","coordinates":[5.659066,45.206889]},"name":"CrowdSpirit","number_of_employees":3,"suma_100":3,"suma_1000":3,"suma_10000":3}
{"geopoint":{"type":"Point","coordinates":[-122.143915,37.42746]},"name":"SayNow","number_of_employees":20,"suma_100":110,"suma_1000":1092,"suma_10000":72986}
{"geopoint":{"type":"Point","coordinates":[-122.393229,37.781265]},"name":"Crunchyroll","number_of_employees":50,"suma_100":114,"suma_1000":9191,"suma_10000":22272}
{"geopoint":{"type":"Point","coordinates":[-122.084171,37.386665]},"name":"Ooyala","number_of_employees":300,"suma_100":463,"suma_1000":1842,"suma_10000":211556}
{"geopoint":{"type":"Point","coordinates":[-74.004592,40.74406]},"name":"Behance","number_of_employees":30,"suma_100":30,"suma_1000":1059,"suma_10000":173180}
{"geopoint":{"type":"Point","coordinates":[-93.4094629,44.865243]},"name":"Yugma","number_of_employees":38,"suma_100":38,"suma_1000":143,"suma_10000":575}
{"geopoint":{"type":"Point","coordinates":[-121.973228,37.387114]},"name":"PixSense","number_of_employees":35,"suma_100":35,"suma_1000":91773,"suma_10000":351578}
{"geopoint":{"type":"Point","coordinates":[-117.572967,34.099253]},"name":"ThemBid","number_of_employees":7,"suma_100":7,"suma_1000":7,"suma_10000":7}
{"geopoint":{"type":"Point","coordinates":[4.400604,50.796645]},"name":"ContactOffice","number_of_employees":10,"suma_100":13,"suma_1000":20,"suma_10000":155}
{"geopoint":{"type":"Point","coordinates":[-118.456806,34.031276]},"name":"hulu","number_of_employees":153,"suma_100":153,"suma_1000":165,"suma_10000":4787}
{"geopoint":{"type":"Point","coordinates":[-0.1065551,51.5195795]},"name":"FAROO","number_of_employees":5,"suma_100":175,"suma_1000":608,"suma_10000":28894}
{"geopoint":{"type":"Point","coordinates":[-122.391236,37.779624]},"name":"imeem","number_of_employees":55,"suma_100":1665,"suma_1000":4902,"suma_10000":22275}
{"geopoint":{"type":"Point","coordinates":[-73.981709,40.775537]},"name":"OrganizedWisdom","number_of_employees":18,"suma_100":18,"suma_1000":217,"suma_10000":172933}
{"geopoint":{"type":"Point","coordinates":[-122.228595,37.453687]},"name":"Attributor","number_of_employees":0,"suma_100":0,"suma_1000":0,"suma_10000":32859}
{"geopoint":{"type":"Point","coordinates":[-73.986771,40.753202]},"name":"LineUpNewYork","number_of_employees":0,"suma_100":0,"suma_1000":107824,"suma_10000":172975}
{"geopoint":{"type":"Point","coordinates":[-122.333523,47.611012]},"name":"MediaPops","number_of_employees":0,"suma_100":0,"suma_1000":876,"suma_10000":5007}
{"geopoint":{"type":"Point","coordinates":[-73.985506,40.757929]},"name":"PeekYou","number_of_employees":20,"suma_100":127,"suma_1000":102688,"suma_10000":172940}
{"geopoint":{"type":"Point","coordinates":[-111.777531,40.357978]},"name":"Mozy","number_of_employees":26,"suma_100":26,"suma_1000":186,"suma_10000":1367}
{"geopoint":{"type":"Point","coordinates":[-97.770174,30.34497]},"name":"GotStatus","number_of_employees":0,"suma_100":0,"suma_1000":0,"suma_10000":4482}
{"geopoint":{"type":"Point","coordinates":[-79.420926,38.003376]},"name":"Mixx","number_of_employees":11,"suma_100":52,"suma_1000":52,"suma_10000":52}
{"geopoint":{"type":"Point","coordinates":[-122.402021,37.764169]},"name":"TripIt","number_of_employees":63,"suma_100":248,"suma_1000":1498,"suma_10000":22265}
{"geopoint":{"type":"Point","coordinates":[-72.105722,41.345754]},"name":"ITema","number_of_employees":0,"suma_100":0,"suma_1000":0,"suma_10000":9}
{"geopoint":{"type":"Point","coordinates":[-105.38018,40.048078]},"name":"Kerpoof","number_of_employees":0,"suma_100":1,"suma_1000":1,"suma_10000":375}
{"geopoint":{"type":"Point","coordinates":[-122.156579,37.446668]},"name":"PubMatic","number_of_employees":380,"suma_100":388,"suma_1000":2191,"suma_10000":77049}
{"geopoint":{"type":"Point","coordinates":[-117.274609,32.847521]},"name":"app2you","number_of_employees":4,"suma_100":59,"suma_1000":149,"suma_10000":895}
{"geopoint":{"type":"Point","coordinates":[-118.4419012,34.0481711]},"name":"Orgoo","number_of_employees":15,"suma_100":15,"suma_1000":40,"suma_10000":5012}
{"geopoint":{"type":"Point","coordinates":[6.182658,49.1004]},"name":"HylioSoft","number_of_employees":3,"suma_100":7,"suma_1000":7,"suma_10000":7}
{"geopoint":{"type":"Point","coordinates":[-122.421341,37.793742]},"name":"YourStreet","number_of_employees":6,"suma_100":6,"suma_1000":198,"suma_10000":22480}
{"geopoint":{"type":"Point","coordinates":[-111.9035,33.8171]},"name":"GENWI","number_of_employees":25,"suma_100":25,"suma_1000":25,"suma_10000":25}
{"geopoint":{"type":"Point","coordinates":[-122.161247,37.445714]},"name":"GlobalMotion","number_of_employees":0,"suma_100":161,"suma_1000":2201,"suma_10000":77044}
{"geopoint":{"type":"Point","coordinates":[-73.566634,45.506643]},"name":"SmartHippo","number_of_employees":10,"suma_100":10,"suma_1000":230,"suma_10000":73351}
{"geopoint":{"type":"Point","coordinates":[-77.123153,39.052614]},"name":"Snoozester","number_of_employees":0,"suma_100":0,"suma_1000":0,"suma_10000":488}
{"geopoint":{"type":"Point","coordinates":[-122.335943,47.6015315]},"name":"FlowPlay","number_of_employees":30,"suma_100":33,"suma_1000":1502,"suma_10000":4888}
{"geopoint":{"type":"Point","coordinates":[13.4109071,52.5013449]},"name":"headr","number_of_employees":8,"suma_100":8,"suma_1000":23,"suma_10000":2103}
{"geopoint":{"type":"Point","coordinates":[-95.536,30.182107]},"name":"IMSafer","number_of_employees":5,"suma_100":5,"suma_1000":5,"suma_10000":5}
{"geopoint":{"type":"Point","coordinates":[-122.675448,45.5241278]},"name":"Vidoop","number_of_employees":30,"suma_100":30,"suma_1000":1037,"suma_10000":1196}
{"geopoint":{"type":"Point","coordinates":[-122.084356,47.585114]},"name":"Feedjit","number_of_employees":2,"suma_100":2,"suma_1000":2,"suma_10000":95765}
{"geopoint":{"type":"Point","coordinates":[-87.63406,41.890376]},"name":"Viewpoints","number_of_employees":15,"suma_100":15,"suma_1000":161431,"suma_10000":176093}
{"geopoint":{"type":"Point","coordinates":[-71.238524,42.296111]},"name":"RatePoint","number_of_employees":45,"suma_100":45,"suma_1000":60,"suma_10000":859}
{"geopoint":{"type":"Point","coordinates":[-118.493592,34.01533]},"name":"ThisNext","number_of_employees":0,"suma_100":8,"suma_1000":940,"suma_10000":3179}
{"geopoint":{"type":"Point","coordinates":[-105.28131,40.01621]},"name":"OneRiot","number_of_employees":32,"suma_100":82,"suma_1000":235,"suma_10000":2737}
{"geopoint":{"type":"Point","coordinates":[-71.118487,42.375392]},"name":"UpDown","number_of_employees":5,"suma_100":673,"suma_1000":694,"suma_10000":108592}
{"geopoint":{"type":"Point","coordinates":[139.7492374,35.6158956]},"name":"LinkShare","number_of_employees":10,"suma_100":10,"suma_1000":10,"suma_10000":60}
{"geopoint":{"type":"Point","coordinates":[-73.9912208,40.7413559]},"name":"Clickable","number_of_employees":160,"suma_100":278,"suma_1000":8397,"suma_10000":173180}
{"geopoint":{"type":"Point","coordinates":[-95.712891,37.09024]},"name":"ValueClick","number_of_employees":1112,"suma_100":191166,"suma_1000":191166,"suma_10000":191166}
{"geopoint":{"type":"Point","coordinates":[24.827224,60.170514]},"name":"Nokia","number_of_employees":125000,"suma_100":125000,"suma_1000":125000,"suma_10000":125218}
{"geopoint":{"type":"Point","coordinates":[-122.166264,37.451124]},"name":"Cuil","number_of_employees":30,"suma_100":30,"suma_1000":1309,"suma_10000":74953}
{"geopoint":{"type":"Point","coordinates":[-75.457492,40.063476]},"name":"Boomi","number_of_employees":35,"suma_100":35,"suma_1000":635,"suma_10000":1336}
{"geopoint":{"type":"Point","coordinates":[-0.136174,51.519819]},"name":"Webjam","number_of_employees":18,"suma_100":73,"suma_1000":26098,"suma_10000":28947}
{"geopoint":{"type":"Point","coordinates":[-122.343679,37.580304]},"name":"mig33","number_of_employees":100,"suma_100":135,"suma_1000":477,"suma_10000":10019}
{"geopoint":{"type":"Point","coordinates":[-71.118487,42.375392]},"name":"GamerDNA","number_of_employees":13,"suma_100":673,"suma_1000":694,"suma_10000":108592}
{"geopoint":{"type":"Point","coordinates":[-74.000195,40.72948]},"name":"Animoto","number_of_employees":60,"suma_100":60,"suma_1000":9700,"suma_10000":173172}
{"geopoint":{"type":"Point","coordinates":[-122.306571,37.799549]},"name":"Data360","number_of_employees":0,"suma_100":0,"suma_1000":0,"suma_10000":19318}
{"geopoint":{"type":"Point","coordinates":[-121.983814,37.222604]},"name":"Houseglue","number_of_employees":5,"suma_100":5,"suma_1000":31,"suma_10000":318228}
{"geopoint":{"type":"Point","coordinates":[-118.441219,33.945553]},"name":"Pakt","number_of_employees":0,"suma_100":0,"suma_1000":0,"suma_10000":3956}
{"geopoint":{"type":"Point","coordinates":[-115.089514,36.076705]},"name":"Swamble","number_of_employees":0,"suma_100":0,"suma_1000":6,"suma_10000":1723}
{"geopoint":{"type":"Point","coordinates":[-118.42749,34.064491]},"name":"mEgo","number_of_employees":15,"suma_100":15,"suma_1000":18,"suma_10000":4912}
{"geopoint":{"type":"Point","coordinates":[-122.26999,37.887864]},"name":"Realius","number_of_employees":3,"suma_100":3,"suma_1000":7,"suma_10000":952}
{"geopoint":{"type":"Point","coordinates":[-122.285714,37.557637]},"name":"SpeedDate","number_of_employees":0,"suma_100":1440,"suma_1000":1899,"suma_10000":16376}
{"geopoint":{"type":"Point","coordinates":[-117.077311,33.020832]},"name":"Metaplace","number_of_employees":12,"suma_100":12,"suma_1000":12,"suma_10000":618}
{"geopoint":{"type":"Point","coordinates":[-122.323895,37.566879]},"name":"Fixya","number_of_employees":30,"suma_100":30,"suma_1000":379,"suma_10000":11025}
{"geopoint":{"type":"Point","coordinates":[-122.404052,37.789634]},"name":"Xobni","number_of_employees":0,"suma_100":207,"suma_1000":10897,"suma_10000":22272}
{"geopoint":{"type":"Point","coordinates":[-122.012475,37.384239]},"name":"Tripwiser","number_of_employees":0,"suma_100":316,"suma_1000":425,"suma_10000":389094}
{"geopoint":{"type":"Point","coordinates":[-122.302262,37.559287]},"name":"Spoke","number_of_employees":8,"suma_100":18,"suma_1000":1400,"suma_10000":16124}
{"geopoint":{"type":"Point","coordinates":[-121.803572,37.661237]},"name":"BroadClip","number_of_employees":8,"suma_100":8,"suma_1000":8,"suma_10000":3199}
{"geopoint":{"type":"Point","coordinates":[14.489674,50.055049]},"name":"Wirenode","number_of_employees":0,"suma_100":0,"suma_1000":0,"suma_10000":79}
{"geopoint":{"type":"Point","coordinates":[-96.9403,32.860831]},"name":"Syntraxis","number_of_employees":6,"suma_100":96,"suma_1000":96,"suma_10000":1132}
{"geopoint":{"type":"Point","coordinates":[-117.244034,33.09568]},"name":"BrightQube","number_of_employees":0,"suma_100":25,"suma_1000":25,"suma_10000":321}
{"geopoint":{"type":"Point","coordinates":[-118.445271,33.977854]},"name":"BuzzDash","number_of_employees":0,"suma_100":0,"suma_1000":50,"suma_10000":4110}
{"geopoint":{"type":"Point","coordinates":[-75.194657,39.956259]},"name":"Styky","number_of_employees":3,"suma_100":3,"suma_1000":39,"suma_10000":100320}
{"geopoint":{"type":"Point","coordinates":[-73.993127,40.740337]},"name":"Empressr","number_of_employees":35,"suma_100":183,"suma_1000":8332,"suma_10000":173180}
{"geopoint":{"type":"Point","coordinates":[-122.08744,37.418491]},"name":"Mozilla","number_of_employees":800,"suma_100":996,"suma_1000":30478,"suma_10000":125701}
{"geopoint":{"type":"Point","coordinates":[-122.393041,37.779558]},"name":"GroupSwim","number_of_employees":9,"suma_100":209,"suma_1000":5159,"suma_10000":22272}
{"geopoint":{"type":"Point","coordinates":[-122.036849,37.369195]},"name":"EkkoTV","number_of_employees":0,"suma_100":7,"suma_1000":26,"suma_10000":377550}
{"geopoint":{"type":"Point","coordinates":[-122.2966496,37.8136086]},"name":"Ponoko","number_of_employees":9,"suma_100":9,"suma_1000":9,"suma_10000":16653}
{"geopoint":{"type":"Point","coordinates":[-76.581864,39.281734]},"name":"Notemarks","number_of_employees":13,"suma_100":150,"suma_1000":150,"suma_10000":373}
{"geopoint":{"type":"Point","coordinates":[175.2604,-37.797384]},"name":"Type-Any-Circle-Of-Six","number_of_employees":0,"suma_100":0,"suma_1000":0,"suma_10000":0}
{"geopoint":{"type":"Point","coordinates":[-0.149522,51.54236]},"name":"Jiglu","number_of_employees":3,"suma_100":3,"suma_1000":79,"suma_10000":28892}
{"geopoint":{"type":"Point","coordinates":[34.7595,32.0554]},"name":"SuTree","number_of_employees":5,"suma_100":170,"suma_1000":170,"suma_10000":279}
{"geopoint":{"type":"Point","coordinates":[-122.542491,37.904468]},"name":"Stixy","number_of_employees":0,"suma_100":3,"suma_1000":3,"suma_10000":509}
{"geopoint":{"type":"Point","coordinates":[-118.474261,34.210785]},"name":"Dopetracks","number_of_employees":4,"suma_100":4,"suma_1000":4,"suma_10000":184}
{"geopoint":{"type":"Point","coordinates":[-73.976348,40.756799]},"name":"Worklight","number_of_employees":30,"suma_100":155,"suma_1000":138602,"suma_10000":172940}
{"geopoint":{"type":"Point","coordinates":[-122.104099,37.401355]},"name":"SueEasy","number_of_employees":6,"suma_100":6,"suma_1000":91,"suma_10000":106088}
{"geopoint":{"type":"Point","coordinates":[-80.632606,28.074742]},"name":"itsmylife","number_of_employees":2,"suma_100":2,"suma_1000":2,"suma_10000":226}
{"geopoint":{"type":"Point","coordinates":[-122.3293984,47.6011125]},"name":"Zillow","number_of_employees":600,"suma_100":600,"suma_1000":1502,"suma_10000":5008}
{"geopoint":{"type":"Point","coordinates":[-122.347533,47.620716]},"name":"Moz","number_of_employees":130,"suma_100":226,"suma_1000":565,"suma_10000":4890}
{"geopoint":{"type":"Point","coordinates":[-122.211281,37.502742]},"name":"Grouply","number_of_employees":6,"suma_100":6,"suma_1000":4006,"suma_10000":16399}
{"geopoint":{"type":"Point","coordinates":[-122.285714,37.557637]},"name":"Zimbra","number_of_employees":200,"suma_100":1440,"suma_1000":1899,"suma_10000":16376}
{"geopoint":{"type":"Point","coordinates":[-122.355579,47.733603]},"name":"Tioti","number_of_employees":3,"suma_100":3,"suma_1000":3,"suma_10000":602}
{"geopoint":{"type":"Point","coordinates":[-122.395234,37.783898]},"name":"Rupture","number_of_employees":25,"suma_100":25,"suma_1000":13141,"suma_10000":22272}
{"geopoint":{"type":"Point","coordinates":[-3.435973,55.378051]},"name":"FlexiScale","number_of_employees":24,"suma_100":47,"suma_1000":47,"suma_10000":47}
{"geopoint":{"type":"Point","coordinates":[-122.298168,37.862209]},"name":"earthmine","number_of_employees":30,"suma_100":30,"suma_1000":63,"suma_10000":1027}
{"geopoint":{"type":"Point","coordinates":[-73.938638,41.705555]},"name":"Mixaloo","number_of_employees":4,"suma_100":4,"suma_1000":4,"suma_10000":4}
{"geopoint":{"type":"Point","coordinates":[-118.468458,34.011335]},"name":"JibJab","number_of_employees":37,"suma_100":37,"suma_1000":52,"suma_10000":3692}
{"geopoint":{"type":"Point","coordinates":[-3.632687,40.530724]},"name":"Fon","number_of_employees":100,"suma_100":100,"suma_1000":100,"suma_10000":208}
{"geopoint":{"type":"Point","coordinates":[-122.77941,45.3085]},"name":"LocoGopher","number_of_employees":0,"suma_100":0,"suma_1000":0,"suma_10000":0}
{"geopoint":{"type":"Point","coordinates":[-122.495222,37.856331]},"name":"Whiskey Media","number_of_employees":12,"suma_100":12,"suma_1000":217,"suma_10000":856}
{"geopoint":{"type":"Point","coordinates":[10.023246,53.707739]},"name":"alluc","number_of_employees":7,"suma_100":7,"suma_1000":7,"suma_10000":7}
{"geopoint":{"type":"Point","coordinates":[-117.20717,32.856744]},"name":"RecipeMatcher","number_of_employees":2,"suma_100":2,"suma_1000":2,"suma_10000":1106}
{"geopoint":{"type":"Point","coordinates":[-71.049346,42.349164]},"name":"CondoDomain","number_of_employees":25,"suma_100":35,"suma_1000":418,"suma_10000":107024}
{"geopoint":{"type":"Point","coordinates":[-122.083487,37.386175]},"name":"Polyvore","number_of_employees":73,"suma_100":468,"suma_1000":1845,"suma_10000":211618}
{"geopoint":{"type":"Point","coordinates":[4.5188631,51.9562996]},"name":"Woophy","number_of_employees":0,"suma_100":0,"suma_1000":0,"suma_10000":447}
{"geopoint":{"type":"Point","coordinates":[-95.712891,37.09024]},"name":"23andMe","number_of_employees":80,"suma_100":191166,"suma_1000":191166,"suma_10000":191166}
{"geopoint":{"type":"Point","coordinates":[-122.346299,47.649027]},"name":"AdReady","number_of_employees":33,"suma_100":58,"suma_1000":517,"suma_10000":4690}
{"geopoint":{"type":"Point","coordinates":[-122.40414,37.792968]},"name":"Blurb","number_of_employees":150,"suma_100":150,"suma_1000":10826,"suma_10000":22272}
{"geopoint":{"type":"Point","coordinates":[-122.394354,37.782809]},"name":"The Climate Corporation","number_of_employees":150,"suma_100":428,"suma_1000":12186,"suma_10000":22272}
{"geopoint":{"type":"Point","coordinates":[-122.421344,37.744274]},"name":"Automattic","number_of_employees":200,"suma_100":200,"suma_1000":230,"suma_10000":22355}
{"geopoint":{"type":"Point","coordinates":[-122.300246,37.553743]},"name":"Veodia","number_of_employees":15,"suma_100":214,"suma_1000":1507,"suma_10000":16306}
{"geopoint":{"type":"Point","coordinates":[-71.52679,42.288291]},"name":"uTest","number_of_employees":120,"suma_100":120,"suma_1000":120,"suma_10000":616}
{"geopoint":{"type":"Point","coordinates":[-95.712891,37.09024]},"name":"Shopatron","number_of_employees":166,"suma_100":191166,"suma_1000":191166,"suma_10000":191166}
{"geopoint":{"type":"Point","coordinates":[-77.091025,38.963492]},"name":"JackBe","number_of_employees":65,"suma_100":65,"suma_1000":83,"suma_10000":1481}
{"geopoint":{"type":"Point","coordinates":[-122.160671,37.445326]},"name":"EchoSign","number_of_employees":100,"suma_100":136,"suma_1000":2201,"suma_10000":77049}
{"geopoint":{"type":"Point","coordinates":[-73.960717,40.621591]},"name":"Payoneer","number_of_employees":200,"suma_100":200,"suma_1000":200,"suma_10000":1552}
{"geopoint":{"type":"Point","coordinates":[-73.9800645,40.6632194]},"name":"Simpy","number_of_employees":0,"suma_100":0,"suma_1000":245,"suma_10000":30231}
{"geopoint":{"type":"Point","coordinates":[-123.115208,49.25403]},"name":"Ubertor","number_of_employees":20,"suma_100":32,"suma_1000":38,"suma_10000":1350}
{"geopoint":{"type":"Point","coordinates":[-75.298032,40.09665]},"name":"XLNTads","number_of_employees":6,"suma_100":6,"suma_1000":6,"suma_10000":699}
{"geopoint":{"type":"Point","coordinates":[-93.407837,44.871371]},"name":"JobDig","number_of_employees":85,"suma_100":85,"suma_1000":143,"suma_10000":575}
{"geopoint":{"type":"Point","coordinates":[-122.394265,37.789498]},"name":"Marakana","number_of_employees":0,"suma_100":2451,"suma_1000":12018,"suma_10000":22272}
{"geopoint":{"type":"Point","coordinates":[-122.0341004,37.2572451]},"name":"Rollbase","number_of_employees":0,"suma_100":0,"suma_1000":0,"suma_10000":84026}
{"geopoint":{"type":"Point","coordinates":[-122.229161,37.486571]},"name":"Predictify","number_of_employees":2,"suma_100":63,"suma_1000":282,"suma_10000":16436}
{"geopoint":{"type":"Point","coordinates":[-122.08276,37.388095]},"name":"TrialPay","number_of_employees":100,"suma_100":103,"suma_1000":2535,"suma_10000":211678}
{"geopoint":{"type":"Point","coordinates":[24.9279199,60.1760995]},"name":"Floobs","number_of_employees":10,"suma_100":10,"suma_1000":40,"suma_10000":125215}
{"geopoint":{"type":"Point","coordinates":[-121.932962,37.285133]},"name":"Firetide","number_of_employees":100,"suma_100":100,"suma_1000":520,"suma_10000":414724}
{"geopoint":{"type":"Point","coordinates":[-122.430127,37.772542]},"name":"Crusher","number_of_employees":3,"suma_100":3,"suma_1000":44,"suma_10000":22265}
{"geopoint":{"type":"Point","coordinates":[138.6959288,-34.788039]},"name":"Moko Social Media","number_of_employees":60,"suma_100":60,"suma_1000":60,"suma_10000":60}
{"geopoint":{"type":"Point","coordinates":[-122.347654,37.590056]},"name":"BitGravity","number_of_employees":50,"suma_100":58,"suma_1000":73,"suma_10000":8729}
{"geopoint":{"type":"Point","coordinates":[-122.40188,37.790992]},"name":"Eurekster","number_of_employees":0,"suma_100":147,"suma_1000":11393,"suma_10000":22272}
{"geopoint":{"type":"Point","coordinates":[2.3608064,48.8599791]},"name":"blueKiwi","number_of_employees":30,"suma_100":30,"suma_1000":20613,"suma_10000":110481}
{"geopoint":{"type":"Point","coordinates":[0.239866,51.604922]},"name":"Skinkers","number_of_employees":12,"suma_100":12,"suma_1000":12,"suma_10000":23}
{"geopoint":{"type":"Point","coordinates":[-83.734673,42.292649]},"name":"Zattoo","number_of_employees":45,"suma_100":45,"suma_1000":45,"suma_10000":102}
{"geopoint":{"type":"Point","coordinates":[-122.158804,37.43938]},"name":"Gigya","number_of_employees":230,"suma_100":230,"suma_1000":2026,"suma_10000":77332}
{"geopoint":{"type":"Point","coordinates":[-122.006539,37.332271]},"name":"Baynote","number_of_employees":80,"suma_100":80,"suma_1000":400,"suma_10000":651446}
{"geopoint":{"type":"Point","coordinates":[-122.085807,37.351894]},"name":"SezWho","number_of_employees":9,"suma_100":9,"suma_1000":9,"suma_10000":184151}
{"geopoint":{"type":"Point","coordinates":[-73.639076,45.545447]},"name":"Defensio","number_of_employees":3,"suma_100":17,"suma_1000":17,"suma_10000":72938}
{"geopoint":{"type":"Point","coordinates":[-122.397672,37.786906]},"name":"Disqus","number_of_employees":43,"suma_100":420,"suma_1000":13317,"suma_10000":22272}
{"geopoint":{"type":"Point","coordinates":[-121.968474,37.352309]},"name":"Upcoming","number_of_employees":3,"suma_100":253,"suma_1000":253,"suma_10000":671891}
{"geopoint":{"type":"Point","coordinates":[-121.956295,37.279132]},"name":"DraftMix","number_of_employees":3,"suma_100":3,"suma_1000":4,"suma_10000":413420}
{"geopoint":{"type":"Point","coordinates":[-73.980246,40.755446]},"name":"Peer39","number_of_employees":50,"suma_100":50,"suma_1000":138047,"suma_10000":172940}
{"geopoint":{"type":"Point","coordinates":[-94.370901,38.977092]},"name":"FilmCrave","number_of_employees":3,"suma_100":3,"suma_1000":3,"suma_10000":5}
{"geopoint":{"type":"Point","coordinates":[13.398694,52.523402]},"name":"Plazes","number_of_employees":15,"suma_100":15,"suma_1000":139,"suma_10000":2100}
{"geopoint":{"type":"Point","coordinates":[-122.334983,47.603327]},"name":"Faves","number_of_employees":7,"suma_100":9,"suma_1000":1722,"suma_10000":4889}
{"geopoint":{"type":"Point","coordinates":[-71.288568,42.402378]},"name":"StylePath","number_of_employees":4,"suma_100":4,"suma_1000":4,"suma_10000":6746}
{"geopoint":{"type":"Point","coordinates":[-77.4582,38.84919]},"name":"BrainKeeper","number_of_employees":10,"suma_100":10,"suma_1000":10,"suma_10000":6690}
{"geopoint":{"type":"Point","coordinates":[-118.468672,34.064139]},"name":"GotCast","number_of_employees":5,"suma_100":28,"suma_1000":28,"suma_10000":4413}
{"geopoint":{"type":"Point","coordinates":[34.7595,32.0554]},"name":"Yedda","number_of_employees":5,"suma_100":170,"suma_1000":170,"suma_10000":279}
{"geopoint":{"type":"Point","coordinates":[0.130647,52.195668]},"name":"Evi","number_of_employees":25,"suma_100":25,"suma_1000":72,"suma_10000":177}
{"geopoint":{"type":"Point","coordinates":[-122.012475,37.384239]},"name":"Minekey","number_of_employees":7,"suma_100":316,"suma_1000":425,"suma_10000":389094}
{"geopoint":{"type":"Point","coordinates":[-71.076632,42.346743]},"name":"Compete","number_of_employees":0,"suma_100":0,"suma_1000":1010,"suma_10000":107180}
{"geopoint":{"type":"Point","coordinates":[-122.296411,37.838225]},"name":"RepairPal","number_of_employees":25,"suma_100":25,"suma_1000":610,"suma_10000":2932}
{"geopoint":{"type":"Point","coordinates":[12.571492,55.6839208]},"name":"Zmags","number_of_employees":95,"suma_100":95,"suma_1000":577,"suma_10000":1624}
{"geopoint":{"type":"Point","coordinates":[-122.394958,37.781262]},"name":"Dipity","number_of_employees":4,"suma_100":19,"suma_1000":9351,"suma_10000":22272}
{"geopoint":{"type":"Point","coordinates":[-118.426707,33.982431]},"name":"StreetFire","number_of_employees":12,"suma_100":12,"suma_1000":12,"suma_10000":4301}
{"geopoint":{"type":"Point","coordinates":[-73.5681635,45.5049305]},"name":"Needium","number_of_employees":15,"suma_100":15,"suma_1000":432,"suma_10000":73351}
{"geopoint":{"type":"Point","coordinates":[-75.531859,40.614969]},"name":"TotalTakeout","number_of_employees":8,"suma_100":8,"suma_1000":8,"suma_10000":87}
{"geopoint":{"type":"Point","coordinates":[-122.316982,37.549475]},"name":"BlackArrow","number_of_employees":60,"suma_100":60,"suma_1000":195,"suma_10000":15944}
{"geopoint":{"type":"Point","coordinates":[-122.245087,37.530893]},"name":"MyBuys","number_of_employees":120,"suma_100":120,"suma_1000":120,"suma_10000":16488}
{"geopoint":{"type":"Point","coordinates":[-74.67117,40.59865]},"name":"Congoo","number_of_employees":5,"suma_100":5,"suma_1000":5,"suma_10000":98}
{"geopoint":{"type":"Point","coordinates":[-97.742682,30.269452]},"name":"Springbox","number_of_employees":65,"suma_100":65,"suma_1000":620,"suma_10000":2102}
{"geopoint":{"type":"Point","coordinates":[-111.68192,40.323902]},"name":"Omniture","number_of_employees":1000,"suma_100":1000,"suma_1000":1038,"suma_10000":1450}
{"geopoint":{"type":"Point","coordinates":[-121.97895,37.399208]},"name":"Vobile","number_of_employees":120,"suma_100":126,"suma_1000":18896,"suma_10000":380933}
{"geopoint":{"type":"Point","coordinates":[-117.175733,32.903248]},"name":"Verimatrix","number_of_employees":100,"suma_100":100,"suma_1000":100,"suma_10000":1063}
{"geopoint":{"type":"Point","coordinates":[-122.3355636,47.6018824]},"name":"Jackson Fish Market","number_of_employees":3,"suma_100":33,"suma_1000":1632,"suma_10000":4888}
{"geopoint":{"type":"Point","coordinates":[-122.347533,47.620716]},"name":"RealSelf","number_of_employees":23,"suma_100":226,"suma_1000":565,"suma_10000":4890}
{"geopoint":{"type":"Point","coordinates":[-118.455798,33.971132]},"name":"littleye","number_of_employees":3,"suma_100":3,"suma_1000":3,"suma_10000":3973}
{"geopoint":{"type":"Point","coordinates":[-122.244743,37.872228]},"name":"ThriveSmart","number_of_employees":0,"suma_100":0,"suma_1000":9,"suma_10000":1012}
{"geopoint":{"type":"Point","coordinates":[-121.941184,37.281651]},"name":"Bloglines","number_of_employees":30,"suma_100":30,"suma_1000":350,"suma_10000":414064}
{"geopoint":{"type":"Point","coordinates":[-79.386755,43.670233]},"name":"Sneakerplay","number_of_employees":0,"suma_100":139,"suma_1000":179,"suma_10000":1359}
{"geopoint":{"type":"Point","coordinates":[-1.721287,52.146853]},"name":"Blyk","number_of_employees":100,"suma_100":100,"suma_1000":100,"suma_10000":100}
{"geopoint":{"type":"Point","coordinates":[-122.402468,37.803847]},"name":"GameLayers","number_of_employees":5,"suma_100":5,"suma_1000":762,"suma_10000":22182}
{"geopoint":{"type":"Point","coordinates":[-71.319348,42.591704]},"name":"OurStage","number_of_employees":1,"suma_100":1,"suma_1000":1,"suma_10000":2079}
{"geopoint":{"type":"Point","coordinates":[-118.472297,33.999004]},"name":"Mogreet","number_of_employees":30,"suma_100":30,"suma_1000":30,"suma_10000":3749}
{"geopoint":{"type":"Point","coordinates":[-72.930855,41.355252]},"name":"Entrecard","number_of_employees":1,"suma_100":1,"suma_1000":1,"suma_10000":403}
{"geopoint":{"type":"Point","coordinates":[-104.894986,39.613859]},"name":"Kaango","number_of_employees":10,"suma_100":10,"suma_1000":10,"suma_10000":3080}
{"geopoint":{"type":"Point","coordinates":[-77.095965,38.984172]},"name":"WEbook","number_of_employees":10,"suma_100":10,"suma_1000":277,"suma_10000":692}
{"geopoint":{"type":"Point","coordinates":[-122.034021,37.368594]},"name":"Apprema","number_of_employees":4,"suma_100":4,"suma_1000":26,"suma_10000":377692}
{"geopoint":{"type":"Point","coordinates":[-84.3927,33.7759]},"name":"Skribit","number_of_employees":3,"suma_100":3,"suma_1000":56,"suma_10000":793}
{"geopoint":{"type":"Point","coordinates":[-122.128585,47.643583]},"name":"Microsoft","number_of_employees":90000,"suma_100":90000,"suma_1000":90000,"suma_10000":95920}
{"geopoint":{"type":"Point","coordinates":[-80.5463811,43.4747042]},"name":"ProductWiki","number_of_employees":8,"suma_100":8,"suma_1000":8,"suma_10000":152}
{"geopoint":{"type":"Point","coordinates":[-122.390945,37.78274]},"name":"Splunk","number_of_employees":500,"suma_100":500,"suma_1000":8730,"suma_10000":22275}
{"geopoint":{"type":"Point","coordinates":[-122.2862187,37.5583159]},"name":"LucidEra","number_of_employees":40,"suma_100":1440,"suma_1000":1899,"suma_10000":16376}
{"geopoint":{"type":"Point","coordinates":[-87.636706,41.878643]},"name":"Localeze","number_of_employees":1,"suma_100":6,"suma_1000":163270,"suma_10000":176076}
{"geopoint":{"type":"Point","coordinates":[-71.255857,42.405685]},"name":"xkoto","number_of_employees":45,"suma_100":45,"suma_1000":4401,"suma_10000":7107}
{"geopoint":{"type":"Point","coordinates":[-122.255907,37.520592]},"name":"TrustedID","number_of_employees":120,"suma_100":120,"suma_1000":1355,"suma_10000":16544}
{"geopoint":{"type":"Point","coordinates":[-122.296342,37.8454819]},"name":"Seeqpod","number_of_employees":25,"suma_100":125,"suma_1000":185,"suma_10000":1035}
{"geopoint":{"type":"Point","coordinates":[-79.435661,43.744031]},"name":"AddLiveVoice","number_of_employees":5,"suma_100":5,"suma_1000":5,"suma_10000":9444}
{"geopoint":{"type":"Point","coordinates":[-123.383426,48.450576]},"name":"SkreemR Search","number_of_employees":3,"suma_100":3,"suma_1000":3,"suma_10000":178}
{"geopoint":{"type":"Point","coordinates":[-94.4284985,38.9143473]},"name":"Doodlekit","number_of_employees":2,"suma_100":2,"suma_1000":2,"suma_10000":5}
{"geopoint":{"type":"Point","coordinates":[72.8545019,19.0627565]},"name":"Adhysteria","number_of_employees":0,"suma_100":0,"suma_1000":0,"suma_10000":200845}
{"geopoint":{"type":"Point","coordinates":[-122.332904,47.598968]},"name":"Snapvine","number_of_employees":20,"suma_100":20,"suma_1000":1502,"suma_10000":4888}
{"geopoint":{"type":"Point","coordinates":[2.3283853,48.8780596]},"name":"Deezer","number_of_employees":200,"suma_100":200,"suma_1000":868,"suma_10000":110853}
{"geopoint":{"type":"Point","coordinates":[-73.9918126,40.742459]},"name":"Yodle","number_of_employees":1000,"suma_100":1018,"suma_1000":8260,"suma_10000":173180}
{"geopoint":{"type":"Point","coordinates":[9.993586,53.540804]},"name":"MyNeighborhood","number_of_employees":3,"suma_100":3,"suma_1000":3,"suma_10000":1256}
{"geopoint":{"type":"Point","coordinates":[-80.058401,26.820375]},"name":"divorce360","number_of_employees":6,"suma_100":6,"suma_1000":6,"suma_10000":9}
{"geopoint":{"type":"Point","coordinates":[2.213749,46.227638]},"name":"Kewego","number_of_employees":65,"suma_100":65,"suma_1000":65,"suma_10000":65}
{"geopoint":{"type":"Point","coordinates":[-71.483077,42.431555]},"name":"Utterz","number_of_employees":3,"suma_100":3,"suma_1000":3,"suma_10000":249}
{"geopoint":{"type":"Point","coordinates":[-71.118487,42.375392]},"name":"HubSpot","number_of_employees":650,"suma_100":673,"suma_1000":694,"suma_10000":108592}
{"geopoint":{"type":"Point","coordinates":[-74.033707,40.909378]},"name":"Vidyo","number_of_employees":80,"suma_100":80,"suma_1000":80,"suma_10000":86}
{"geopoint":{"type":"Point","coordinates":[-74.453466,40.532457]},"name":"eventsbot","number_of_employees":10,"suma_100":10,"suma_1000":10,"suma_10000":360}
{"geopoint":{"type":"Point","coordinates":[-121.898539,36.611645]},"name":"CrossLoop","number_of_employees":8,"suma_100":8,"suma_1000":8,"suma_10000":17}
{"geopoint":{"type":"Point","coordinates":[-94.833992,30.500307]},"name":"Criticker","number_of_employees":0,"suma_100":0,"suma_1000":0,"suma_10000":0}
{"geopoint":{"type":"Point","coordinates":[-122.3938931,37.7766184]},"name":"Dapper","number_of_employees":30,"suma_100":410,"suma_1000":4943,"suma_10000":22272}
{"geopoint":{"type":"Point","coordinates":[2.3304161,48.8747064]},"name":"Viadeo","number_of_employees":400,"suma_100":400,"suma_1000":1035,"suma_10000":110853}
{"geopoint":{"type":"Point","coordinates":[-95.712891,37.09024]},"name":"Uversity","number_of_employees":30,"suma_100":191166,"suma_1000":191166,"suma_10000":191166}
{"geopoint":{"type":"Point","coordinates":[-87.649878,41.907647]},"name":"GrubHub","number_of_employees":250,"suma_100":250,"suma_1000":250,"suma_10000":176116}
{"geopoint":{"type":"Point","coordinates":[-95.712891,37.09024]},"name":"eBurl","number_of_employees":1,"suma_100":191166,"suma_1000":191166,"suma_10000":191166}
{"geopoint":{"type":"Point","coordinates":[-74.0094471,40.6772802]},"name":"Vemo","number_of_employees":3,"suma_100":3,"suma_1000":3,"suma_10000":171578}
{"geopoint":{"type":"Point","coordinates":[-122.3975878,37.7799872]},"name":"LiveJournal","number_of_employees":25,"suma_100":49,"suma_1000":7573,"suma_10000":22272}
{"geopoint":{"type":"Point","coordinates":[-96.791739,32.863466]},"name":"Match","number_of_employees":350,"suma_100":350,"suma_1000":350,"suma_10000":104872}
{"geopoint":{"type":"Point","coordinates":[-122.3991505,37.7876952]},"name":"HubPages","number_of_employees":21,"suma_100":252,"suma_1000":13161,"suma_10000":22272}
{"geopoint":{"type":"Point","coordinates":[-118.495981,34.01052]},"name":"Goodreads","number_of_employees":70,"suma_100":76,"suma_1000":923,"suma_10000":3147}
{"geopoint":{"type":"Point","coordinates":[-73.865287,41.035749]},"name":"Squidoo","number_of_employees":14,"suma_100":14,"suma_1000":84,"suma_10000":843}
{"geopoint":{"type":"Point","coordinates":[-122.084171,37.386665]},"name":"Ribbit","number_of_employees":28,"suma_100":463,"suma_1000":1842,"suma_10000":211556}
{"geopoint":{"type":"Point","coordinates":[-122.265466,37.864221]},"name":"Vyew","number_of_employees":10,"suma_100":10,"suma_1000":119,"suma_10000":1032}
{"geopoint":{"type":"Point","coordinates":[-73.996122,40.7508]},"name":"GoLark","number_of_employees":3,"suma_100":4,"suma_1000":110779,"suma_10000":173175}
{"geopoint":{"type":"Point","coordinates":[-78.902115,35.996157]},"name":"Shoeboxed","number_of_employees":70,"suma_100":70,"suma_1000":301,"suma_10000":403}
{"geopoint":{"type":"Point","coordinates":[-73.973072,40.752516]},"name":"WeShow","number_of_employees":0,"suma_100":0,"suma_1000":36571,"suma_10000":172975}
{"geopoint":{"type":"Point","coordinates":[34.7595,32.0554]},"name":"Flixwagon","number_of_employees":10,"suma_100":170,"suma_1000":170,"suma_10000":279}
{"geopoint":{"type":"Point","coordinates":[-95.49158,29.804863]},"name":"CareFlash","number_of_employees":0,"suma_100":0,"suma_1000":0,"suma_10000":812}
{"geopoint":{"type":"Point","coordinates":[-122.120938,47.680496]},"name":"Picktastic","number_of_employees":2,"suma_100":11,"suma_1000":11,"suma_10000":90993}
{"geopoint":{"type":"Point","coordinates":[-122.230116,37.486368]},"name":"Qik","number_of_employees":60,"suma_100":63,"suma_1000":282,"suma_10000":16342}
{"geopoint":{"type":"Point","coordinates":[-96.70737,32.959908]},"name":"RipCode","number_of_employees":39,"suma_100":39,"suma_1000":39,"suma_10000":30377}
{"geopoint":{"type":"Point","coordinates":[-121.9477639,37.4050988]},"name":"CDNetworks","number_of_employees":350,"suma_100":350,"suma_1000":63352,"suma_10000":263122}
{"geopoint":{"type":"Point","coordinates":[-122.271532,37.559836]},"name":"Deem","number_of_employees":400,"suma_100":650,"suma_1000":1202,"suma_10000":16351}
{"geopoint":{"type":"Point","coordinates":[-122.39897,37.78624]},"name":"Mobissimo","number_of_employees":15,"suma_100":15,"suma_1000":13501,"suma_10000":22272}
{"geopoint":{"type":"Point","coordinates":[-73.4168779,41.1010914]},"name":"KAYAK","number_of_employees":101,"suma_100":101,"suma_1000":105,"suma_10000":237}
{"geopoint":{"type":"Point","coordinates":[-71.137784,42.524527]},"name":"Acquia","number_of_employees":400,"suma_100":400,"suma_1000":500,"suma_10000":1373}
{"geopoint":{"type":"Point","coordinates":[-117.240799,32.939673]},"name":"Chumby","number_of_employees":20,"suma_100":20,"suma_1000":31,"suma_10000":797}
{"geopoint":{"type":"Point","coordinates":[-73.983268,40.694731]},"name":"Etsy","number_of_employees":300,"suma_100":300,"suma_1000":300,"suma_10000":172936}
{"geopoint":{"type":"Point","coordinates":[-122.117933,37.446526]},"name":"Ausra","number_of_employees":4,"suma_100":1004,"suma_1000":1080,"suma_10000":90023}
{"geopoint":{"type":"Point","coordinates":[114.109497,22.396428]},"name":"EditGrid","number_of_employees":0,"suma_100":0,"suma_1000":0,"suma_10000":4}
{"geopoint":{"type":"Point","coordinates":[-111.939932,33.421948]},"name":"Photology","number_of_employees":5,"suma_100":5,"suma_1000":984,"suma_10000":2864}
{"geopoint":{"type":"Point","coordinates":[-71.146011,42.38941]},"name":"Icosystem","number_of_employees":25,"suma_100":125,"suma_1000":125,"suma_10000":113403}
{"geopoint":{"type":"Point","coordinates":[-122.245323,37.496737]},"name":"Tesla Motors","number_of_employees":500,"suma_100":500,"suma_1000":856,"suma_10000":18570}
{"geopoint":{"type":"Point","coordinates":[-121.9479223,37.3208403]},"name":"Bunchball","number_of_employees":60,"suma_100":195,"suma_1000":265,"suma_10000":649365}
{"geopoint":{"type":"Point","coordinates":[-73.969296,40.762673]},"name":"SimulScribe","number_of_employees":10,"suma_100":10,"suma_1000":36356,"suma_10000":172937}
{"geopoint":{"type":"Point","coordinates":[-73.992152,40.754698]},"name":"Xanga","number_of_employees":22,"suma_100":40,"suma_1000":105376,"suma_10000":172930}
{"geopoint":{"type":"Point","coordinates":[-74.331811,40.565602]},"name":"LiveHire","number_of_employees":5,"suma_100":5,"suma_1000":100,"suma_10000":110}
{"geopoint":{"type":"Point","coordinates":[-122.028961,37.330534]},"name":"Apple","number_of_employees":80000,"suma_100":80000,"suma_1000":80040,"suma_10000":581433}
{"geopoint":{"type":"Point","coordinates":[-122.117418,37.402802]},"name":"TravelMuse","number_of_employees":11,"suma_100":11,"suma_1000":41,"suma_10000":89443}
{"geopoint":{"type":"Point","coordinates":[-118.46371,33.994162]},"name":"Driftr","number_of_employees":0,"suma_100":0,"suma_1000":42,"suma_10000":3834}
{"geopoint":{"type":"Point","coordinates":[-95.712891,37.09024]},"name":"NetApp","number_of_employees":8000,"suma_100":191166,"suma_1000":191166,"suma_10000":191166}
{"geopoint":{"type":"Point","coordinates":[-95.712891,37.09024]},"name":"ice","number_of_employees":80,"suma_100":191166,"suma_1000":191166,"suma_10000":191166}
{"geopoint":{"type":"Point","coordinates":[-3.435973,55.378051]},"name":"Next2Friends","number_of_employees":0,"suma_100":47,"suma_1000":47,"suma_10000":47}
{"geopoint":{"type":"Point","coordinates":[-73.97785,40.797364]},"name":"Orglex","number_of_employees":0,"suma_100":0,"suma_1000":2,"suma_10000":170589}
{"geopoint":{"type":"Point","coordinates":[-121.991912,37.385225]},"name":"4Home","number_of_employees":36,"suma_100":66,"suma_1000":17161,"suma_10000":380586}
{"geopoint":{"type":"Point","coordinates":[-71.45677,42.42517]},"name":"Monster","number_of_employees":0,"suma_100":0,"suma_1000":49,"suma_10000":265}
{"geopoint":{"type":"Point","coordinates":[-122.324688,37.563905]},"name":"bluepulse","number_of_employees":7,"suma_100":16,"suma_1000":379,"suma_10000":11025}
{"geopoint":{"type":"Point","coordinates":[-122.421778,37.763652]},"name":"Mogad","number_of_employees":2,"suma_100":2,"suma_1000":270,"suma_10000":22265}
{"geopoint":{"type":"Point","coordinates":[-95.712891,37.09024]},"name":"Pixel Qi","number_of_employees":1,"suma_100":191166,"suma_1000":191166,"suma_10000":191166}
{"geopoint":{"type":"Point","coordinates":[-122.1914274,47.6399006]},"name":"Livemocha","number_of_employees":35,"suma_100":35,"suma_1000":35,"suma_10000":95980}
{"geopoint":{"type":"Point","coordinates":[-73.985506,40.757929]},"name":"TableXchange","number_of_employees":4,"suma_100":127,"suma_1000":102688,"suma_10000":172940}
{"geopoint":{"type":"Point","coordinates":[34.851612,31.046051]},"name":"YouFig","number_of_employees":2,"suma_100":47,"suma_1000":47,"suma_10000":47}
{"geopoint":{"type":"Point","coordinates":[-87.636411,41.883551]},"name":"Mpayy","number_of_employees":2,"suma_100":2,"suma_1000":163784,"suma_10000":176093}
{"geopoint":{"type":"Point","coordinates":[-96.848836,33.020526]},"name":"Woot","number_of_employees":200,"suma_100":200,"suma_1000":200,"suma_10000":785}
{"geopoint":{"type":"Point","coordinates":[-74.275771,40.521502]},"name":"CheerOutLoud","number_of_employees":0,"suma_100":0,"suma_1000":0,"suma_10000":105}
{"geopoint":{"type":"Point","coordinates":[-122.300246,37.553743]},"name":"fabrik","number_of_employees":175,"suma_100":214,"suma_1000":1507,"suma_10000":16306}
{"geopoint":{"type":"Point","coordinates":[-122.398599,37.798853]},"name":"Widgetbox","number_of_employees":30,"suma_100":60,"suma_1000":3379,"suma_10000":22297}
{"geopoint":{"type":"Point","coordinates":[-122.285714,37.557637]},"name":"SuccessFactors","number_of_employees":1200,"suma_100":1440,"suma_1000":1899,"suma_10000":16376}
{"geopoint":{"type":"Point","coordinates":[2.35022,48.862063]},"name":"AF83","number_of_employees":55,"suma_100":105,"suma_1000":20821,"suma_10000":110681}
{"geopoint":{"type":"Point","coordinates":[-118.256305,34.051368]},"name":"Oversee","number_of_employees":150,"suma_100":150,"suma_1000":1071,"suma_10000":1942}
{"geopoint":{"type":"Point","coordinates":[-0.126236,51.500152]},"name":"WAYN","number_of_employees":42,"suma_100":253,"suma_1000":266,"suma_10000":28948}
{"geopoint":{"type":"Point","coordinates":[16.5692822,49.2259017]},"name":"Webnode","number_of_employees":30,"suma_100":30,"suma_1000":30,"suma_10000":30}
{"geopoint":{"type":"Point","coordinates":[-95.712891,37.09024]},"name":"Frevvo","number_of_employees":10,"suma_100":191166,"suma_1000":191166,"suma_10000":191166}
{"geopoint":{"type":"Point","coordinates":[-97.711652,30.390071]},"name":"Mumboe","number_of_employees":17,"suma_100":17,"suma_1000":126,"suma_10000":3063}
{"geopoint":{"type":"Point","coordinates":[-0.0926903,51.522413]},"name":"UnLtdWorld","number_of_employees":4,"suma_100":4,"suma_1000":844,"suma_10000":28886}
{"geopoint":{"type":"Point","coordinates":[-122.404234,37.765158]},"name":"Zynga","number_of_employees":115,"suma_100":115,"suma_1000":1420,"suma_10000":22265}
{"geopoint":{"type":"Point","coordinates":[88.363895,22.572646]},"name":"Scrabulous","number_of_employees":30,"suma_100":30,"suma_1000":30,"suma_10000":461}
{"geopoint":{"type":"Point","coordinates":[-95.712891,37.09024]},"name":"Boobik","number_of_employees":3,"suma_100":191166,"suma_1000":191166,"suma_10000":191166}
{"geopoint":{"type":"Point","coordinates":[15.625419,58.415755]},"name":"Twingly","number_of_employees":12,"suma_100":12,"suma_1000":52,"suma_10000":52}
{"geopoint":{"type":"Point","coordinates":[-105.139804,39.851338]},"name":"Blogonize","number_of_employees":1,"suma_100":1,"suma_1000":1,"suma_10000":131}
{"geopoint":{"type":"Point","coordinates":[-105.01277,39.758126]},"name":"HouseFront","number_of_employees":0,"suma_100":0,"suma_1000":0,"suma_10000":354}
{"geopoint":{"type":"Point","coordinates":[-122.406676,37.766909]},"name":"Proximic","number_of_employees":20,"suma_100":595,"suma_1000":1365,"suma_10000":22265}
{"geopoint":{"type":"Point","coordinates":[-118.691285,34.280555]},"name":"ReimagineMemories","number_of_employees":2,"suma_100":2,"suma_1000":2,"suma_10000":2}
{"geopoint":{"type":"Point","coordinates":[9.98793,53.555554]},"name":"XING","number_of_employees":500,"suma_100":500,"suma_1000":511,"suma_10000":1256}
{"geopoint":{"type":"Point","coordinates":[-71.11829,42.33222]},"name":"Bizak","number_of_employees":1,"suma_100":1,"suma_1000":1,"suma_10000":108694}
{"geopoint":{"type":"Point","coordinates":[-122.4020276,37.7891288]},"name":"Roost","number_of_employees":15,"suma_100":131,"suma_1000":11702,"suma_10000":22272}
{"geopoint":{"type":"Point","coordinates":[-105.28131,40.01621]},"name":"Lijit Networks","number_of_employees":50,"suma_100":82,"suma_1000":235,"suma_10000":2737}
{"geopoint":{"type":"Point","coordinates":[-71.081527,42.36233]},"name":"Endeca","number_of_employees":500,"suma_100":1250,"suma_1000":4002,"suma_10000":107212}
{"geopoint":{"type":"Point","coordinates":[-8.6267726,52.6638571]},"name":"WorldTV","number_of_employees":5,"suma_100":5,"suma_1000":5,"suma_10000":7}
{"geopoint":{"type":"Point","coordinates":[-123.376129,48.416421]},"name":"GeoDentist","number_of_employees":0,"suma_100":0,"suma_1000":0,"suma_10000":178}
{"geopoint":{"type":"Point","coordinates":[-118.461884,34.031764]},"name":"WonderHowTo","number_of_employees":12,"suma_100":12,"suma_1000":165,"suma_10000":4679}
{"geopoint":{"type":"Point","coordinates":[-121.9317853,37.2906027]},"name":"clipsync","number_of_employees":28,"suma_100":28,"suma_1000":315470,"suma_10000":414757}
{"geopoint":{"type":"Point","coordinates":[-84.5615,39.3996]},"name":"5pm","number_of_employees":6,"suma_100":6,"suma_1000":6,"suma_10000":6}
{"geopoint":{"type":"Point","coordinates":[-122.403865,37.788266]},"name":"Lookery","number_of_employees":9,"suma_100":49,"suma_1000":11001,"suma_10000":22272}
{"geopoint":{"type":"Point","coordinates":[-122.419204,37.775196]},"name":"Heroku","number_of_employees":80,"suma_100":745,"suma_1000":3078,"suma_10000":22265}
{"geopoint":{"type":"Point","coordinates":[-94.597567,39.044582]},"name":"Cubics","number_of_employees":160,"suma_100":460,"suma_1000":460,"suma_10000":14525}
{"geopoint":{"type":"Point","coordinates":[-88.079763,42.027319]},"name":"Motorola Solutions","number_of_employees":51000,"suma_100":51000,"suma_1000":51000,"suma_10000":51087}
{"geopoint":{"type":"Point","coordinates":[-122.38944,37.788827]},"name":"XLR8 Mobile","number_of_employees":21,"suma_100":21,"suma_1000":8633,"suma_10000":22580}
{"geopoint":{"type":"Point","coordinates":[-71.1543315,42.4159418]},"name":"Tipjoy","number_of_employees":2,"suma_100":2,"suma_1000":2,"suma_10000":113359}
{"geopoint":{"type":"Point","coordinates":[-122.26694,37.864256]},"name":"FotoFlexer","number_of_employees":17,"suma_100":17,"suma_1000":119,"suma_10000":1032}
{"geopoint":{"type":"Point","coordinates":[-122.079114,37.392962]},"name":"Mill River Labs","number_of_employees":5,"suma_100":496,"suma_1000":2790,"suma_10000":297918}
{"geopoint":{"type":"Point","coordinates":[-122.315396,37.550954]},"name":"Sharetivity","number_of_employees":10,"suma_100":10,"suma_1000":195,"suma_10000":15944}
{"geopoint":{"type":"Point","coordinates":[-122.154837,47.58181]},"name":"Expedia","number_of_employees":4400,"suma_100":4400,"suma_1000":4645,"suma_10000":95817}
{"geopoint":{"type":"Point","coordinates":[-85.717393,38.257035]},"name":"First30Days","number_of_employees":17,"suma_100":17,"suma_1000":17,"suma_10000":31}
{"geopoint":{"type":"Point","coordinates":[-71.44698,42.710437]},"name":"LimeAll","number_of_employees":2,"suma_100":2,"suma_1000":2,"suma_10000":299}
{"geopoint":{"type":"Point","coordinates":[1.434685,43.604071]},"name":"Web2Wave","number_of_employees":3,"suma_100":3,"suma_1000":3,"suma_10000":58}
{"geopoint":{"type":"Point","coordinates":[-83.324521,33.90886]},"name":"Maugans Corp","number_of_employees":4,"suma_100":4,"suma_1000":4,"suma_10000":4}
{"geopoint":{"type":"Point","coordinates":[-97.709809,30.384453]},"name":"BreakingPoint Systems","number_of_employees":109,"suma_100":109,"suma_1000":126,"suma_10000":3063}
{"geopoint":{"type":"Point","coordinates":[-94.671644,38.89055]},"name":"iModules Software","number_of_employees":67,"suma_100":67,"suma_1000":117,"suma_10000":163}
{"geopoint":{"type":"Point","coordinates":[-79.420926,38.003376]},"name":"HonestMall","number_of_employees":30,"suma_100":52,"suma_1000":52,"suma_10000":52}
{"geopoint":{"type":"Point","coordinates":[-157.837351,21.338849]},"name":"FutonMedia","number_of_employees":2,"suma_100":2,"suma_1000":2,"suma_10000":140}
{"geopoint":{"type":"Point","coordinates":[-77.3479238,38.9530391]},"name":"VisualCV","number_of_employees":5,"suma_100":5,"suma_1000":314,"suma_10000":1348}
{"geopoint":{"type":"Point","coordinates":[-80.241433,36.09506]},"name":"VerticalCurve","number_of_employees":5,"suma_100":5,"suma_1000":5,"suma_10000":5}
{"geopoint":{"type":"Point","coordinates":[-118.371279,34.096359]},"name":"Mibura","number_of_employees":10,"suma_100":10,"suma_1000":117,"suma_10000":26969}
{"geopoint":{"type":"Point","coordinates":[2.163697,41.383182]},"name":"]project-open[","number_of_employees":3,"suma_100":3,"suma_1000":27,"suma_10000":716}
{"geopoint":{"type":"Point","coordinates":[-122.96391,50.123306]},"name":"ZiFiMusic","number_of_employees":1,"suma_100":3,"suma_1000":3,"suma_10000":3}
{"geopoint":{"type":"Point","coordinates":[-122.187925,47.704875]},"name":"PokerPlayersSocialNetwork","number_of_employees":3,"suma_100":3,"suma_1000":3,"suma_10000":90810}
{"geopoint":{"type":"Point","coordinates":[-75.162644,39.952229]},"name":"myfirstpaycheck","number_of_employees":4,"suma_100":4,"suma_1000":100130,"suma_10000":102609}
{"geopoint":{"type":"Point","coordinates":[-123.095238,49.285173]},"name":"memelabs","number_of_employees":10,"suma_100":394,"suma_1000":432,"suma_10000":1283}
{"geopoint":{"type":"Point","coordinates":[-122.3308,47.6064]},"name":"PopShops","number_of_employees":3,"suma_100":3,"suma_1000":1724,"suma_10000":5008}
{"geopoint":{"type":"Point","coordinates":[-119.855405,34.431454]},"name":"Citrix Online","number_of_employees":700,"suma_100":700,"suma_1000":700,"suma_10000":737}
{"geopoint":{"type":"Point","coordinates":[-118.289065,34.128046]},"name":"MetaNotes","number_of_employees":4,"suma_100":4,"suma_1000":4,"suma_10000":28319}
{"geopoint":{"type":"Point","coordinates":[151.039775,-34.054416]},"name":"thatsmymouse","number_of_employees":3,"suma_100":3,"suma_1000":3,"suma_10000":3}
{"geopoint":{"type":"Point","coordinates":[-121.878844,37.349317]},"name":"MerchantOS","number_of_employees":2,"suma_100":2,"suma_1000":2,"suma_10000":535303}
{"geopoint":{"type":"Point","coordinates":[-122.113773,37.377624]},"name":"SimpleFeed","number_of_employees":22,"suma_100":22,"suma_1000":433,"suma_10000":169365}
{"geopoint":{"type":"Point","coordinates":[-122.323408,47.615313]},"name":"eNotes","number_of_employees":11,"suma_100":39,"suma_1000":129,"suma_10000":5277}
{"geopoint":{"type":"Point","coordinates":[-122.278487,37.773545]},"name":"TripnTale","number_of_employees":3,"suma_100":3,"suma_1000":3,"suma_10000":4019}
{"geopoint":{"type":"Point","coordinates":[-122.349863,47.650674]},"name":"Survey Analytics","number_of_employees":100,"suma_100":100,"suma_1000":517,"suma_10000":4691}
{"geopoint":{"type":"Point","coordinates":[-121.965784,37.312676]},"name":"Aductions","number_of_employees":5,"suma_100":5,"suma_1000":5,"suma_10000":577267}
{"geopoint":{"type":"Point","coordinates":[-122.334393,47.599136]},"name":"Mergelab","number_of_employees":3,"suma_100":77,"suma_1000":1502,"suma_10000":4888}
{"geopoint":{"type":"Point","coordinates":[-122.46649,37.762512]},"name":"Craigslist","number_of_employees":25,"suma_100":25,"suma_1000":35,"suma_10000":22265}
{"geopoint":{"type":"Point","coordinates":[-77.447612,39.006988]},"name":"Weblogs","number_of_employees":23,"suma_100":23,"suma_1000":23,"suma_10000":470}
{"geopoint":{"type":"Point","coordinates":[-118.332885,34.09846]},"name":"mobileStorm","number_of_employees":40,"suma_100":40,"suma_1000":196,"suma_10000":28692}
{"geopoint":{"type":"Point","coordinates":[77.628576,12.933644]},"name":"Vaakya Technologies","number_of_employees":40,"suma_100":40,"suma_1000":115,"suma_10000":763}
{"geopoint":{"type":"Point","coordinates":[-74.007413,40.707253]},"name":"Metromole","number_of_employees":3,"suma_100":263,"suma_1000":8397,"suma_10000":172662}
{"geopoint":{"type":"Point","coordinates":[-122.120938,47.680496]},"name":"TalentSpring","number_of_employees":9,"suma_100":11,"suma_1000":11,"suma_10000":90993}
{"geopoint":{"type":"Point","coordinates":[-87.673059,41.955054]},"name":"skinnyCorp","number_of_employees":45,"suma_100":45,"suma_1000":45,"suma_10000":176051}
{"geopoint":{"type":"Point","coordinates":[51.5082,25.2948]},"name":"Triptuber","number_of_employees":2,"suma_100":2,"suma_1000":2,"suma_10000":2}
{"geopoint":{"type":"Point","coordinates":[-122.154565,37.407752]},"name":"Collarity","number_of_employees":30,"suma_100":30,"suma_1000":18829,"suma_10000":72877}
{"geopoint":{"type":"Point","coordinates":[-1.045716,53.949714]},"name":"ioko","number_of_employees":270,"suma_100":270,"suma_1000":270,"suma_10000":270}
{"geopoint":{"type":"Point","coordinates":[5.1230002,52.0799794]},"name":"Mininova","number_of_employees":5,"suma_100":5,"suma_1000":15,"suma_10000":552}
{"geopoint":{"type":"Point","coordinates":[18.467386,54.538851]},"name":"apivision","number_of_employees":2,"suma_100":2,"suma_1000":4,"suma_10000":415}
{"geopoint":{"type":"Point","coordinates":[113.997909,22.266141]},"name":"China-8","number_of_employees":5,"suma_100":5,"suma_1000":5,"suma_10000":5}
{"geopoint":{"type":"Point","coordinates":[-74.411658,40.407946]},"name":"Jet Numbers","number_of_employees":5,"suma_100":5,"suma_1000":5,"suma_10000":5313}
{"geopoint":{"type":"Point","coordinates":[-122.404488,37.790032]},"name":"Unknown Vector","number_of_employees":7,"suma_100":207,"suma_1000":10819,"suma_10000":22272}
{"geopoint":{"type":"Point","coordinates":[-73.961981,40.684257]},"name":"Brownstoner Media","number_of_employees":2,"suma_100":2,"suma_1000":2,"suma_10000":172786}
{"geopoint":{"type":"Point","coordinates":[-105.07359,39.89674]},"name":"SpotXchange","number_of_employees":24,"suma_100":66,"suma_1000":66,"suma_10000":139}
{"geopoint":{"type":"Point","coordinates":[-71.118487,42.375392]},"name":"Maven Networks","number_of_employees":0,"suma_100":673,"suma_1000":694,"suma_10000":108592}
{"geopoint":{"type":"Point","coordinates":[-122.196699,47.6097449]},"name":"Limeade","number_of_employees":55,"suma_100":55,"suma_1000":370,"suma_10000":96142}
{"geopoint":{"type":"Point","coordinates":[-118.425401,34.059721]},"name":"PlanJam","number_of_employees":3,"suma_100":3,"suma_1000":18,"suma_10000":5172}
{"geopoint":{"type":"Point","coordinates":[-75.1961715,39.9564403]},"name":"Vuzit","number_of_employees":6,"suma_100":12,"suma_1000":39,"suma_10000":100320}
{"geopoint":{"type":"Point","coordinates":[-2.318142,53.443183]},"name":"VisitorNetworks","number_of_employees":6,"suma_100":6,"suma_1000":6,"suma_10000":102}
{"geopoint":{"type":"Point","coordinates":[-122.395792,37.776467]},"name":"Kazowie","number_of_employees":6,"suma_100":59,"suma_1000":4964,"suma_10000":22272}
{"geopoint":{"type":"Point","coordinates":[-121.918319,37.383844]},"name":"Mixbook","number_of_employees":90,"suma_100":90,"suma_1000":90,"suma_10000":574221}
{"geopoint":{"type":"Point","coordinates":[-71.434135,42.445825]},"name":"Otrib","number_of_employees":2,"suma_100":2,"suma_1000":2,"suma_10000":245}
{"geopoint":{"type":"Point","coordinates":[-122.773646,45.446475]},"name":"LUNARR","number_of_employees":11,"suma_100":11,"suma_1000":11,"suma_10000":143}
{"geopoint":{"type":"Point","coordinates":[-105.07359,39.89674]},"name":"Booyah Networks","number_of_employees":42,"suma_100":66,"suma_1000":66,"suma_10000":139}
{"geopoint":{"type":"Point","coordinates":[14.285917,48.305996]},"name":"tomatic","number_of_employees":1,"suma_100":1,"suma_1000":1,"suma_10000":1}
{"geopoint":{"type":"Point","coordinates":[-73.968173,40.75033]},"name":"HeadStrong Brain Gym","number_of_employees":5,"suma_100":13,"suma_1000":36249,"suma_10000":173185}
{"geopoint":{"type":"Point","coordinates":[-122.3921102,37.7776778]},"name":"What They Like","number_of_employees":10,"suma_100":10,"suma_1000":4655,"suma_10000":22272}
{"geopoint":{"type":"Point","coordinates":[-122.1997,47.6106]},"name":"Yodio","number_of_employees":4,"suma_100":4,"suma_1000":370,"suma_10000":96942}
{"geopoint":{"type":"Point","coordinates":[-111.679755,40.32462]},"name":"Bungee Labs","number_of_employees":38,"suma_100":38,"suma_1000":1038,"suma_10000":1450}
{"geopoint":{"type":"Point","coordinates":[-121.234636,38.744194]},"name":"LittleEngine","number_of_employees":5,"suma_100":5,"suma_1000":5,"suma_10000":27}
{"geopoint":{"type":"Point","coordinates":[-121.9053,37.244187]},"name":"JukeFly","number_of_employees":2,"suma_100":2,"suma_1000":2,"suma_10000":332005}
{"geopoint":{"type":"Point","coordinates":[-122.300863,47.66274]},"name":"Movaya","number_of_employees":20,"suma_100":20,"suma_1000":20,"suma_10000":5172}
{"geopoint":{"type":"Point","coordinates":[-80.064158,26.524058]},"name":"Cellware","number_of_employees":25,"suma_100":25,"suma_1000":30,"suma_10000":36}
{"geopoint":{"type":"Point","coordinates":[-122.398599,37.798853]},"name":"ManageMyAdvertising","number_of_employees":1,"suma_100":60,"suma_1000":3379,"suma_10000":22297}
{"geopoint":{"type":"Point","coordinates":[-117.874221,33.689171]},"name":"Experian","number_of_employees":15500,"suma_100":15500,"suma_1000":15500,"suma_10000":17340}
{"geopoint":{"type":"Point","coordinates":[-122.117133,37.451255]},"name":"Paglo","number_of_employees":9,"suma_100":9,"suma_1000":1084,"suma_10000":89730}
{"geopoint":{"type":"Point","coordinates":[-122.3419,47.634444]},"name":"LyfeSystems","number_of_employees":9,"suma_100":9,"suma_1000":29,"suma_10000":4688}
{"geopoint":{"type":"Point","coordinates":[-122.267654,37.494965]},"name":"Kaddoz","number_of_employees":4,"suma_100":10,"suma_1000":10,"suma_10000":16713}
{"geopoint":{"type":"Point","coordinates":[-118.469316,34.064629]},"name":"Jirbo","number_of_employees":23,"suma_100":28,"suma_1000":28,"suma_10000":4413}
{"geopoint":{"type":"Point","coordinates":[3.165225,50.694712]},"name":"Poodz","number_of_employees":5,"suma_100":5,"suma_1000":5,"suma_10000":10}
{"geopoint":{"type":"Point","coordinates":[-73.988477,40.752325]},"name":"Oddcast","number_of_employees":65,"suma_100":76,"suma_1000":111673,"suma_10000":172975}
{"geopoint":{"type":"Point","coordinates":[-84.092596,33.984004]},"name":"uVuMobile","number_of_employees":26,"suma_100":26,"suma_1000":26,"suma_10000":374}
{"geopoint":{"type":"Point","coordinates":[-0.0766034,51.5220072]},"name":"Bragster","number_of_employees":10,"suma_100":10,"suma_1000":591,"suma_10000":28884}
{"geopoint":{"type":"Point","coordinates":[11.556452,48.124827]},"name":"amiando","number_of_employees":76,"suma_100":76,"suma_1000":92,"suma_10000":351}
{"geopoint":{"type":"Point","coordinates":[-70.5745187,43.407099]},"name":"HEXIO","number_of_employees":1,"suma_100":1,"suma_1000":1,"suma_10000":1}
{"geopoint":{"type":"Point","coordinates":[4.892903,52.365001]},"name":"RankOne Media Group","number_of_employees":10,"suma_100":44,"suma_1000":192,"suma_10000":12775}
{"geopoint":{"type":"Point","coordinates":[-122.3413,47.613896]},"name":"Escapia","number_of_employees":23,"suma_100":58,"suma_1000":545,"suma_10000":4892}
{"geopoint":{"type":"Point","coordinates":[-111.907962,33.610015]},"name":"MyCityFaces","number_of_employees":4,"suma_100":4,"suma_1000":4004,"suma_10000":12836}
{"geopoint":{"type":"Point","coordinates":[-122.404403,37.78691]},"name":"Pivotal Labs","number_of_employees":225,"suma_100":663,"suma_1000":9600,"suma_10000":22272}
{"geopoint":{"type":"Point","coordinates":[-118.243425,34.052187]},"name":"GumGum","number_of_employees":55,"suma_100":416,"suma_1000":545,"suma_10000":1898}
{"geopoint":{"type":"Point","coordinates":[-118.153136,34.146436]},"name":"Snap Technologies","number_of_employees":32,"suma_100":232,"suma_1000":300,"suma_10000":1304}
{"geopoint":{"type":"Point","coordinates":[-97.742306,30.2672]},"name":"UnsubCentral","number_of_employees":10,"suma_100":382,"suma_1000":618,"suma_10000":2102}
{"geopoint":{"type":"Point","coordinates":[-79.403014,43.646599]},"name":"Advaliant","number_of_employees":60,"suma_100":60,"suma_1000":305,"suma_10000":1234}
{"geopoint":{"type":"Point","coordinates":[-97.742306,30.2672]},"name":"SKYLIST","number_of_employees":65,"suma_100":382,"suma_1000":618,"suma_10000":2102}
{"geopoint":{"type":"Point","coordinates":[9.7580413,52.3653872]},"name":"openPeople","number_of_employees":5,"suma_100":5,"suma_1000":5,"suma_10000":5}
{"geopoint":{"type":"Point","coordinates":[-73.998208,40.725568]},"name":"GroundReport","number_of_employees":6,"suma_100":80,"suma_1000":9751,"suma_10000":172672}
{"geopoint":{"type":"Point","coordinates":[-122.419204,37.775196]},"name":"Three Rings","number_of_employees":30,"suma_100":745,"suma_1000":3078,"suma_10000":22265}
{"geopoint":{"type":"Point","coordinates":[-71.093601,42.36638]},"name":"ChoiceStream","number_of_employees":50,"suma_100":50,"suma_1000":102375,"suma_10000":108426}
{"geopoint":{"type":"Point","coordinates":[-83.042051,39.976837]},"name":"2 under entertainment","number_of_employees":4,"suma_100":4,"suma_1000":4,"suma_10000":140}
{"geopoint":{"type":"Point","coordinates":[-122.03336,36.977905]},"name":"Recombinant","number_of_employees":10,"suma_100":10,"suma_1000":34,"suma_10000":39}
{"geopoint":{"type":"Point","coordinates":[-122.323045,37.566123]},"name":"Smalltown","number_of_employees":8,"suma_100":16,"suma_1000":379,"suma_10000":11025}
{"geopoint":{"type":"Point","coordinates":[-122.323045,37.566123]},"name":"Local2Me","number_of_employees":8,"suma_100":16,"suma_1000":379,"suma_10000":11025}
{"geopoint":{"type":"Point","coordinates":[-122.347533,47.620716]},"name":"Shelfari","number_of_employees":11,"suma_100":226,"suma_1000":565,"suma_10000":4890}
{"geopoint":{"type":"Point","coordinates":[-70.262434,43.65467]},"name":"LibraryThing","number_of_employees":10,"suma_100":10,"suma_1000":33,"suma_10000":33}
{"geopoint":{"type":"Point","coordinates":[-122.4033943,37.7876175]},"name":"Fat Goose","number_of_employees":2,"suma_100":496,"suma_1000":10436,"suma_10000":22272}
{"geopoint":{"type":"Point","coordinates":[-79.996384,40.442796]},"name":"QponDirect","number_of_employees":10,"suma_100":10,"suma_1000":380,"suma_10000":403}
{"geopoint":{"type":"Point","coordinates":[-74.006196,40.725883]},"name":"TheLadders","number_of_employees":110,"suma_100":210,"suma_1000":1630,"suma_10000":172672}
{"geopoint":{"type":"Point","coordinates":[-96.739399,32.812748]},"name":"DeaLoco","number_of_employees":2,"suma_100":2,"suma_1000":2,"suma_10000":74527}
{"geopoint":{"type":"Point","coordinates":[-121.9741983,37.4190653]},"name":"TiVo","number_of_employees":400,"suma_100":400,"suma_1000":400,"suma_10000":299142}
{"geopoint":{"type":"Point","coordinates":[4.45585,51.919413]},"name":"Wipido","number_of_employees":4,"suma_100":8,"suma_1000":8,"suma_10000":451}
{"geopoint":{"type":"Point","coordinates":[-117.214722,32.874543]},"name":"One Voice Technologies","number_of_employees":9,"suma_100":9,"suma_1000":140,"suma_10000":1115}
{"geopoint":{"type":"Point","coordinates":[-118.368871,33.988735]},"name":"Gorilla Nation Media","number_of_employees":163,"suma_100":273,"suma_1000":311,"suma_10000":3212}
{"geopoint":{"type":"Point","coordinates":[-117.632731,33.551221]},"name":"Audio Lunchbox","number_of_employees":8,"suma_100":8,"suma_1000":8,"suma_10000":168}
{"geopoint":{"type":"Point","coordinates":[-121.884399,37.332828]},"name":"Subimage","number_of_employees":2,"suma_100":2,"suma_1000":524,"suma_10000":467085}
{"geopoint":{"type":"Point","coordinates":[-121.968687,37.25142]},