{"name":"eBay","longitude":-121.930035,"latitude":37.295005,"100m":30000,"1000m":345470,"10000m":760942}
{"name":"Sony","longitude":-95.712891,"latitude":37.09024,"100m":371666,"1000m":562832,"10000m":753998}
{"name":"PayPal","longitude":-121.927696,"latitude":37.294465,"100m":600000,"1000m":915470,"10000m":1330867}
{"name":"TechTarget","longitude":-95.712891,"latitude":37.09024,"100m":191766,"1000m":382932,"10000m":574098}
{"name":"Sportsline","longitude":-95.712891,"latitude":37.09024,"100m":191430,"1000m":382596,"10000m":573762}
{"name":"Espotting","longitude":-95.712891,"latitude":37.09024,"100m":191416,"1000m":382582,"10000m":573748}
{"name":"ValueClick","longitude":-95.712891,"latitude":37.09024,"100m":192278,"1000m":383444,"10000m":574610}
{"name":"Apple","longitude":-122.028961,"latitude":37.330534,"100m":160000,"1000m":240040,"10000m":821473}
{"name":"NetApp","longitude":-95.712891,"latitude":37.09024,"100m":199166,"1000m":390332,"10000m":581498}
{"name":"IBM","longitude":-73.723999,"latitude":41.109534,"100m":776000,"1000m":1164000,"10000m":1552059}
{"name":"Comcast","longitude":-75.1652518,"latitude":39.9525762,"100m":200000,"1000m":300130,"10000m":402739}
{"name":"Boeing","longitude":-87.638807,"latitude":41.883195,"100m":320000,"1000m":483659,"10000m":659752}
{"name":"MetaCarta","longitude":-71.099692,"latitude":42.36236,"100m":199998,"1000m":302144,"10000m":410570}
{"name":"CSC","longitude":-77.214756,"latitude":38.859879,"100m":270000,"1000m":450000,"10000m":724988}
{"name":"Telera","longitude":-121.934573,"latitude":37.293687,"100m":200,"1000m":315770,"10000m":731182}
{"name":"Asyncast Corporation","longitude":-121.933651,"latitude":37.291228,"100m":62,"1000m":315552,"10000m":730859}
{"name":"Naseeb Networks","longitude":-121.9303616,"latitude":37.3015115,"100m":200,"1000m":315400,"10000m":818054}
{"name":"tempCFO Solutions","longitude":-121.93418,"latitude":37.291065,"100m":64,"1000m":315554,"10000m":730861}
{"name":"i365, A Seagate Company","longitude":-121.9618928,"latitude":37.3774296,"100m":1100,"1000m":88257,"10000m":759689}
